{"languages": [{"latitude": "42.61581", "texts": ["aln-x-bible-alban-v0.txt"], "code": "aln", "name": "Gheg Albanian", "longitude": "20.8701"}, {"latitude": "-12.30605", "texts": ["bvr-x-bible-burrara-v0.txt"], "code": "bvr", "name": "Burarra", "longitude": "134.36499"}, {"latitude": "-11.21321", "texts": ["qvn-x-bible-quenj-v0.txt"], "code": "qvn", "name": "North Jun\u00edn Quechua", "longitude": "-75.81275"}, {"latitude": "-9.15718", "texts": ["qvh-x-bible-quehd-v0.txt"], "code": "qvh", "name": "Huamal\u00edes-Dos de Mayo Hu\u00e1nuco Quechua", "longitude": "-76.33719"}, {"latitude": "45.73279", "texts": ["ron-x-bible-corni-v0.txt"], "code": "ron", "name": "Romanian", "longitude": "24.97773"}, {"latitude": "-9.84463", "texts": ["qvm-x-bible-quemy-v0.txt"], "code": "qvm", "name": "Margos-Yarowilca-Lauricocha Quechua", "longitude": "-76.49806"}, {"latitude": "-2.44717", "texts": ["bvz-x-bible-bauzi-v0.txt"], "code": "bvz", "name": "Bauzi", "longitude": "137.6289"}, {"latitude": "42.36164", "texts": ["oss-x-bible-osset-v0.txt"], "code": "oss", "name": "Osetin", "longitude": "44.07725"}, {"latitude": "52.12283", "texts": ["ale-x-bible-aleppocoheb-v0.txt"], "code": "ale", "name": "Aleut", "longitude": "-174.29013"}, {"latitude": "56.18608", "texts": ["sco-x-bible-scoga-v0.txt"], "code": "sco", "name": "Scots", "longitude": "-4.00282"}, {"latitude": "-7.09314", "texts": ["qvc-x-bible-queca-v0.txt"], "code": "qvc", "name": "Cajamarca Quechua", "longitude": "-78.32141"}, {"latitude": "4.57915", "texts": ["mnh-x-bible-mangseng-v0.txt"], "code": "mnh", "name": "Mono", "longitude": "19.82638"}, {"latitude": "12.62963", "texts": ["mnk-x-bible-mandi-v0.txt"], "code": "mnk", "name": "Mandinka", "longitude": "-15.78509"}, {"latitude": "11.51858", "texts": ["nnw-x-bible-nunis-v0.txt"], "code": "nnw", "name": "Southern Nuni", "longitude": "-2.14385"}, {"latitude": "-1.63641", "texts": ["qvz-x-bible-quino-v0.txt"], "code": "qvz", "name": "Northern Pastaza Quichua", "longitude": "-77.19858"}, {"latitude": "20.13959", "texts": ["otq-x-bible-otomq-v0.txt"], "code": "otq", "name": "Quer\u00e9taro Otomi", "longitude": "-100.11487"}, {"latitude": "-18.135", "texts": ["rop-x-bible-kriol-v0.txt"], "code": "rop", "name": "Kriol", "longitude": "137.669"}, {"latitude": "-5.66965", "texts": ["mna-x-bible-mbula-v0.txt"], "code": "mna", "name": "Mbula", "longitude": "148.04113"}, {"latitude": "-5.40419", "texts": ["mnb-x-bible-muna-v0.txt"], "code": "mnb", "name": "Muna", "longitude": "122.54076"}, {"latitude": "30.5476", "texts": ["pes-x-bible-iranpers-v0.txt"], "code": "pes", "name": "Western Farsi", "longitude": "54.8362"}, {"latitude": "5.68073", "texts": ["mnf-x-bible-munda-v0.txt", "mnf-x-bible-mundcabd-v0.txt"], "code": "mnf", "name": "Mundani", "longitude": "9.91533"}, {"latitude": "-6.91988", "texts": ["ptp-x-bible-patep-v0.txt"], "code": "ptp", "name": "Patep", "longitude": "146.63945"}, {"latitude": "-6.39311", "texts": ["nop-x-bible-numa-v0.txt"], "code": "nop", "name": "Numanggang", "longitude": "146.71937"}, {"latitude": "-1.12312", "texts": ["auc-x-bible-Huaor-v0.txt"], "code": "auc", "name": "Waorani", "longitude": "-76.68295"}, {"latitude": "10.2359", "texts": ["bqc-x-bible-boko-v0.txt"], "code": "bqc", "name": "Boko", "longitude": "3.46831"}, {"latitude": "-9.6692", "texts": ["aui-x-bible-anuki-v0.txt"], "code": "aui", "name": "Anuki", "longitude": "149.82236"}, {"latitude": "-5.94339", "texts": ["roo-x-bible-rotok-v0.txt"], "code": "roo", "name": "Rotokas", "longitude": "155.15365"}, {"latitude": "-12.58208", "texts": ["wmw-x-bible-mwani-v0.txt"], "code": "wmw", "name": "Mwani", "longitude": "40.46007"}, {"latitude": "-6.38841", "texts": ["kmu-x-bible-kanite-v0.txt"], "code": "kmu", "name": "Kanite", "longitude": "145.55598"}, {"latitude": "-9.67147", "texts": ["mwc-x-bible-are-v0.txt"], "code": "mwc", "name": "Are", "longitude": "149.9994"}, {"latitude": "17.35959", "texts": ["xtd-x-bible-mixdt-v0.txt"], "code": "xtd", "name": "Diuxi-Tilantongo Mixtec", "longitude": "-97.38615"}, {"latitude": "5.67057", "texts": ["jvn-x-bible-javanesecaribb-v0.txt"], "code": "jvn", "name": "Caribbean Javanese", "longitude": "-55.42758"}, {"latitude": "-6.54079", "texts": ["auy-x-bible-awiya-v0.txt"], "code": "auy", "name": "Awiyaana", "longitude": "145.75972"}, {"latitude": "17.03317", "texts": ["zab-x-bible-zasjg-v0.txt"], "code": "zab", "name": "San Juan Guelav\u00eda Zapotec", "longitude": "-96.59675"}, {"latitude": "16.90424", "texts": ["mpm-x-bible-mixyo-v0.txt"], "code": "mpm", "name": "Yosond\u00faa Mixtec", "longitude": "-97.50179"}, {"latitude": "-4.70881", "texts": ["mpt-x-bible-mian-v0.txt"], "code": "mpt", "name": "Mian", "longitude": "141.52283"}, {"latitude": "-5.4967", "texts": ["fai-x-bible-faiwo-v0.txt"], "code": "fai", "name": "Faiwol", "longitude": "141.65597"}, {"latitude": "-6.65765", "texts": ["mps-x-bible-dadib-v0.txt"], "code": "mps", "name": "Dadibi", "longitude": "144.51071"}, {"latitude": "9.51408", "texts": ["fal-x-bible-falso-v0.txt"], "code": "fal", "name": "South Fali", "longitude": "13.61642"}, {"latitude": "-6.62687", "texts": ["faa-x-bible-fasu-v0.txt"], "code": "faa", "name": "Fasu", "longitude": "143.28359"}, {"latitude": "69.29134", "texts": ["sme-x-bible-northsaami-v0.txt"], "code": "sme", "name": "North Saami", "longitude": "20.12405"}, {"latitude": "-10.68215", "texts": ["mpx-x-bible-misim-v0.txt"], "code": "mpx", "name": "Misima-Paneati", "longitude": "152.69631"}, {"latitude": "11.52576", "texts": ["guc-x-bible-wayuu-v0.txt"], "code": "guc", "name": "Wayuu", "longitude": "-72.24028"}, {"latitude": "25.92863", "texts": ["cmn-x-bible-chinmancuv-v0.txt", "cmn-x-bible-chinmandnull-v0.txt", "cmn-x-bible-chncs-v0.txt", "cmn-x-bible-chnct-v0.txt", "cmn-x-bible-chuni-v0.txt", "cmn-x-bible-chuns-v0.txt"], "code": "cmn", "name": "Mandarin Chinese", "longitude": "106.27701"}, {"latitude": "-25.60551", "texts": ["gug-x-bible-paragur-v0.txt"], "code": "gug", "name": "Paraguayan Guarani", "longitude": "-57.08816"}, {"latitude": "40.40121", "texts": ["hye-x-bible-armeneaster-v0.txt", "hye-x-bible-armenian-v0.txt", "hye-x-bible-armenwester-v0.txt"], "code": "hye", "name": "Armenian", "longitude": "45.0399"}, {"latitude": "8.81115", "texts": ["dik-x-bible-dinkr-v0.txt"], "code": "dik", "name": "Southwestern Dinka", "longitude": "28.06131"}, {"latitude": "22.53507", "texts": ["guj-x-bible-gujar-v0.txt"], "code": "guj", "name": "Gujarati", "longitude": "71.40448"}, {"latitude": "-20.11726", "texts": ["gui-x-bible-guaeb-v0.txt"], "code": "gui", "name": "Eastern Bolivian Guaran\u00ed", "longitude": "-62.98948"}, {"latitude": "50.85331", "texts": ["bxr-x-bible-burya-v0.txt"], "code": "bxr", "name": "Russia Buriat", "longitude": "105.5637"}, {"latitude": "2.8969", "texts": ["guo-x-bible-guaya-v0.txt"], "code": "guo", "name": "Guayabero", "longitude": "-71.84405"}, {"latitude": "-23.90381", "texts": ["gun-x-bible-guamb-v0.txt"], "code": "gun", "name": "Mby\u00e1 Guaran\u00ed", "longitude": "-46.96306"}, {"latitude": "2.55849", "texts": ["gum-x-bible-guamb-v0.txt"], "code": "gum", "name": "Guambiano", "longitude": "-76.58197"}, {"latitude": "10.78287", "texts": ["gur-x-bible-frafb-v0.txt", "gur-x-bible-frafr-v0.txt"], "code": "gur", "name": "Farefare", "longitude": "-0.8471"}, {"latitude": "70.78648", "texts": ["esi-x-bible-inupi-v0.txt"], "code": "esi", "name": "North Alaskan Inupiatun", "longitude": "-153.91532"}, {"latitude": "4.75826", "texts": ["pbc-x-bible-patamona-v0.txt"], "code": "pbc", "name": "Patamona", "longitude": "-59.57716"}, {"latitude": "1.82601", "texts": ["iba-x-bible-iban-v0.txt"], "code": "iba", "name": "Iban", "longitude": "112.46189"}, {"latitude": "17.24284", "texts": ["trq-x-bible-triqu-v0.txt"], "code": "trq", "name": "San Mart\u00edn Itunyoso Triqui", "longitude": "-97.92019"}, {"latitude": "12.07232", "texts": ["gux-x-bible-gulma-v0.txt"], "code": "gux", "name": "Gourmanch\u00e9ma", "longitude": "1.00775"}, {"latitude": "9.27995", "texts": ["dip-x-bible-dinkp-v0.txt"], "code": "dip", "name": "Northeastern Dinka", "longitude": "31.83923"}, {"latitude": "-8.67145", "texts": ["rro-x-bible-waima-v0.txt"], "code": "rro", "name": "Waima", "longitude": "146.54377"}, {"latitude": "-18.73951", "texts": ["cap-x-bible-chipa-v0.txt", "cap-x-bible-chipb-v0.txt"], "code": "cap", "name": "Chipaya", "longitude": "-67.89633"}, {"latitude": "35.8884", "texts": ["mlt-x-bible-dahl-v0.txt"], "code": "mlt", "name": "Maltese", "longitude": "14.45082"}, {"latitude": "-1.49611", "texts": ["mnx-x-bible-manik-v0.txt"], "code": "mnx", "name": "Manikion", "longitude": "133.9497"}, {"latitude": "-3.32733", "texts": ["qup-x-bible-quesp-v0.txt"], "code": "qup", "name": "Southern Pastaza Quechua", "longitude": "-76.52697"}, {"latitude": "-0.53252", "texts": ["hto-x-bible-huitomini-v0.txt"], "code": "hto", "name": "Minica Huitoto", "longitude": "-73.61014"}, {"latitude": "-4.28957", "texts": ["msy-x-bible-aruam-v0.txt"], "code": "msy", "name": "Aruamu", "longitude": "144.84163"}, {"latitude": "20.61888", "texts": ["tee-x-bible-tepeh-v0.txt"], "code": "tee", "name": "Huehuetla Tepehua", "longitude": "-97.93472"}, {"latitude": "-13.35441", "texts": ["cav-x-bible-cavin-v0.txt"], "code": "cav", "name": "Cavine\u00f1a", "longitude": "-66.62773"}, {"latitude": "-1.43002", "texts": ["pmf-x-bible-bahta-v0.txt", "pmf-x-bible-pamona-v0.txt"], "code": "pmf", "name": "Pamona", "longitude": "121.44561"}, {"latitude": "-20.66136", "texts": ["ter-x-bible-teren-v0.txt"], "code": "ter", "name": "Ter\u00eana", "longitude": "-56.03292"}, {"latitude": "-3.02759", "texts": ["ptu-x-bible-bamba-v0.txt"], "code": "ptu", "name": "Bambam", "longitude": "119.20134"}, {"latitude": "-3.34342", "texts": ["mmx-x-bible-madak-v0.txt"], "code": "mmx", "name": "Madak", "longitude": "151.96672"}, {"latitude": "15.23154", "texts": ["sbl-x-bible-samba-v0.txt"], "code": "sbl", "name": "Botolan Sambal", "longitude": "120.16443"}, {"latitude": "-10.07609", "texts": ["bdd-x-bible-bunam-v0.txt"], "code": "bdd", "name": "Bunama", "longitude": "151.06647"}, {"latitude": "-7.76339", "texts": ["sue-x-bible-suena-v0.txt"], "code": "sue", "name": "Suena", "longitude": "147.53436"}, {"latitude": "-12.18092", "texts": ["qvw-x-bible-quehw-v0.txt"], "code": "qvw", "name": "Huaylla Wanca Quechua", "longitude": "-75.20551"}, {"latitude": "16.72145", "texts": ["zpl-x-bible-zlach-v0.txt"], "code": "zpl", "name": "Lachix\u00edo Zapotec", "longitude": "-96.93185"}, {"latitude": "-5.03471", "texts": ["sua-x-bible-sulka-v0.txt"], "code": "sua", "name": "Sulka", "longitude": "151.89079"}, {"latitude": "-6.89708", "texts": ["sun-x-bible-sunda-v0.txt"], "code": "sun", "name": "Sunda", "longitude": "107.10636"}, {"latitude": "10.87855", "texts": ["kus-x-bible-kusaal-v0.txt"], "code": "kus", "name": "Kusaal", "longitude": "-0.29327"}, {"latitude": "-8.09371", "texts": ["kup-x-bible-Kunimaipa-v0.txt"], "code": "kup", "name": "Kunimaipa", "longitude": "146.90782"}, {"latitude": "42.88799", "texts": ["kum-x-bible-kumyk-v0.txt"], "code": "kum", "name": "Kumyk", "longitude": "47.32625"}, {"latitude": "-3.7801", "texts": ["abt-x-bible-mapri-v0.txt", "abt-x-bible-woser-v0.txt"], "code": "abt", "name": "Ambulas", "longitude": "143.05898"}, {"latitude": "9.47205", "texts": ["sur-x-bible-mwagh-v0.txt"], "code": "sur", "name": "Mwaghavul", "longitude": "8.96522"}, {"latitude": "9.93574", "texts": ["xon-x-bible-kliko-v0.txt", "xon-x-bible-klikp-v0.txt"], "code": "xon", "name": "Konkomba", "longitude": "0.0426"}, {"latitude": "-9.75911", "texts": ["aby-x-bible-aby-v0.txt"], "code": "aby", "name": "Aneme Wake", "longitude": "148.47891"}, {"latitude": "-5.90586", "texts": ["kue-x-bible-kuman-v0.txt"], "code": "kue", "name": "Kuman", "longitude": "144.97713"}, {"latitude": "-10.09588", "texts": ["kud-x-bible-auhelawa-v0.txt"], "code": "kud", "name": "'Auhelawa", "longitude": "151.00206"}, {"latitude": "7.15656", "texts": ["kub-x-bible-kutep-v0.txt"], "code": "kub", "name": "Kutep", "longitude": "10.03107"}, {"latitude": "-5.47036", "texts": ["mee-x-bible-mengen-v0.txt"], "code": "mee", "name": "Mengen", "longitude": "151.37257"}, {"latitude": "-5.62644", "texts": ["med-x-bible-melpa-v0.txt"], "code": "med", "name": "Melpa", "longitude": "144.33974"}, {"latitude": "-14.08527", "texts": ["quz-x-bible-quecz-v0.txt"], "code": "quz", "name": "Cusco Quechua", "longitude": "-71.76625"}, {"latitude": "12.4305", "texts": ["lee-x-bible-lyele-v0.txt"], "code": "lee", "name": "Ly\u00e9l\u00e9", "longitude": "-2.59229"}, {"latitude": "7.34549", "texts": ["lef-x-bible-lelemi-v0.txt"], "code": "lef", "name": "Lelemi", "longitude": "0.50746"}, {"latitude": "7.76637", "texts": ["men-x-bible-mende-v0.txt"], "code": "men", "name": "Mende", "longitude": "-11.51285"}, {"latitude": "4.5893", "texts": ["lem-x-bible-nomaande-v0.txt"], "code": "lem", "name": "Nomaande", "longitude": "10.91566"}, {"latitude": "-8.23853", "texts": ["mek-x-bible-mekeo-v0.txt"], "code": "mek", "name": "Mekeo", "longitude": "146.58609"}, {"latitude": "-1.18016", "texts": ["mej-x-bible-meyah-v0.txt"], "code": "mej", "name": "Meyah", "longitude": "133.6177"}, {"latitude": "-4.15721", "texts": ["yss-x-bible-yawan-v0.txt", "yss-x-bible-yawu-v0.txt"], "code": "yss", "name": "Yessan-Mayo", "longitude": "142.57362"}, {"latitude": "-1.21051", "texts": ["kzf-x-bible-kaida-v0.txt"], "code": "kzf", "name": "Da'a Kaili", "longitude": "119.52744"}, {"latitude": "-2.81957", "texts": ["leu-x-bible-kara-v0.txt"], "code": "leu", "name": "Kara", "longitude": "151.11092"}, {"latitude": "-6.46414", "texts": ["kze-x-bible-kosena-v0.txt"], "code": "kze", "name": "Kosena", "longitude": "145.66048"}, {"latitude": "1.46563", "texts": ["tby-x-bible-tabaru-v0.txt"], "code": "tby", "name": "Tabaru", "longitude": "127.63279"}, {"latitude": "-1.41092", "texts": ["mwv-x-bible-menta-v0.txt"], "code": "mwv", "name": "Mentawai", "longitude": "98.94011"}, {"latitude": "17.47664", "texts": ["ctu-x-bible-cholti-v0.txt", "ctu-x-bible-chotu-v0.txt"], "code": "ctu", "name": "Tumbal\u00e1 Chol", "longitude": "-92.26418"}, {"latitude": "31.77607", "texts": ["hbo-x-bible-hebra-v0.txt", "hbo-x-bible-hebrb-v0.txt", "hbo-x-bible-hebrc-v0.txt", "hbo-x-bible-hebrd-v0.txt", "hbo-x-bible-hebre-v0.txt"], "code": "hbo", "name": "Ancient Hebrew", "longitude": "35.17248"}, {"latitude": "16.2495", "texts": ["ctp-x-bible-chawh-v0.txt"], "code": "ctp", "name": "Western Highland Chatino", "longitude": "-97.32436"}, {"latitude": "-6.56688", "texts": ["ksr-x-bible-borong-v0.txt"], "code": "ksr", "name": "Borong", "longitude": "147.511"}, {"latitude": "14.52777", "texts": ["quc-x-bible-quijo-v0.txt", "quc-x-bible-quiwc-v0.txt"], "code": "quc", "name": "Central Quich\u00e9", "longitude": "-91.16965"}, {"latitude": "-5.45899", "texts": ["boj-x-bible-anjam-v0.txt"], "code": "boj", "name": "Anjam", "longitude": "145.71663"}, {"latitude": "-6.13347", "texts": ["akh-x-bible-anghe-v0.txt"], "code": "akh", "name": "Angal Heneng", "longitude": "143.47808"}, {"latitude": "16.29628", "texts": ["cta-x-bible-chata-v0.txt"], "code": "cta", "name": "Tataltepec Chatino", "longitude": "-97.53112"}, {"latitude": "-9.08879", "texts": ["bon-x-bible-bine-v0.txt"], "code": "bon", "name": "Bine", "longitude": "142.89335"}, {"latitude": "1.66127", "texts": ["akb-x-bible-akbda-v0.txt"], "code": "akb", "name": "Batak Angkola", "longitude": "99.60248"}, {"latitude": "-13.98051", "texts": ["wim-x-bible-mungka-v0.txt"], "code": "wim", "name": "Wik-Mungkan", "longitude": "141.81611"}, {"latitude": "2.87807", "texts": ["sja-x-bible-epena-v0.txt"], "code": "sja", "name": "Epena", "longitude": "-77.19119"}, {"latitude": "6.08065", "texts": ["ake-x-bible-akawa-v0.txt"], "code": "ake", "name": "Akawaio", "longitude": "-60.61405"}, {"latitude": "-7.05417", "texts": ["apz-x-bible-ampee-v0.txt"], "code": "apz", "name": "Safeyoka", "longitude": "146.08961"}, {"latitude": "38.1793", "texts": ["uzn-x-bible-uzbek-v0.txt"], "code": "uzn", "name": "Northern Uzbek", "longitude": "68.36695"}, {"latitude": "1.49792", "texts": ["apy-x-bible-apala-v0.txt"], "code": "apy", "name": "Apala\u00ed", "longitude": "-54.7457"}, {"latitude": "17.11945", "texts": ["vie-x-bible-tieng-v0.txt", "vie-x-bible-vietn-v0.txt"], "code": "vie", "name": "Vietnamese", "longitude": "106.91747"}, {"latitude": "17.12189", "texts": ["bru-x-bible-bruea-v0.txt"], "code": "bru", "name": "Eastern Bru", "longitude": "106.18315"}, {"latitude": "-5.42586", "texts": ["ipi-x-bible-ipili-v0.txt"], "code": "ipi", "name": "Ipili", "longitude": "143.08884"}, {"latitude": "-8.21692", "texts": ["apu-x-bible-apuri-v0.txt"], "code": "apu", "name": "Apurin\u00e3", "longitude": "-66.77141"}, {"latitude": "-6.35863", "texts": ["wiu-x-bible-witu-v0.txt"], "code": "wiu", "name": "Wiru", "longitude": "144.21446"}, {"latitude": "-6.10774", "texts": ["apn-x-bible-apina-v0.txt"], "code": "apn", "name": "Apinay\u00e9", "longitude": "-47.63153"}, {"latitude": "-11.18865", "texts": ["rkb-x-bible-rkbkt-v0.txt"], "code": "rkb", "name": "Rikbaktsa", "longitude": "-58.19424"}, {"latitude": "48.24523", "texts": ["bre-x-bible-breto-v0.txt"], "code": "bre", "name": "Breton", "longitude": "-3.78934"}, {"latitude": "15.19541", "texts": ["sgb-x-bible-magan-v0.txt"], "code": "sgb", "name": "Mag-Anchi Ayta", "longitude": "120.45949"}, {"latitude": "-3.47169", "texts": ["ape-x-bible-bukiy-v0.txt"], "code": "ape", "name": "Bukiyip", "longitude": "143.11061"}, {"latitude": "13.45633", "texts": ["cha-x-bible-chamo-v0.txt", "cha-x-bible-chamorro-v0.txt"], "code": "cha", "name": "Chamorro", "longitude": "144.78661"}, {"latitude": "16.18489", "texts": ["chd-x-bible-chohi-v0.txt"], "code": "chd", "name": "Highland Oaxaca Chontal", "longitude": "-95.73011"}, {"latitude": "43.21954", "texts": ["che-x-bible-chech-v0.txt"], "code": "che", "name": "Chechen", "longitude": "45.73836"}, {"latitude": "18.17129", "texts": ["chf-x-bible-chota-v0.txt"], "code": "chf", "name": "Tabasco Chontal", "longitude": "-92.73666"}, {"latitude": "7.376237", "texts": ["dnj-x-bible-danea-v0.txt", "dnj-x-bible-danwe-v0.txt"], "code": "dnj", "name": "Dan", "longitude": "-7.438136"}, {"latitude": "17.56211", "texts": ["chq-x-bible-chinantequio-v0.txt", "chq-x-bible-chinq-v0.txt"], "code": "chq", "name": "Quiotepec Chinantec", "longitude": "-96.60203"}, {"latitude": "35.46639", "texts": ["chr-x-bible-cheroke-v0.txt"], "code": "chr", "name": "Cherokee", "longitude": "-83.16303"}, {"latitude": "59.85336", "texts": ["chu-x-bible-slavooldch-v0.txt"], "code": "chu", "name": "Old Church Slavonic", "longitude": "57.91854"}, {"latitude": "-10.73264", "texts": ["twu-x-bible-terman-v0.txt"], "code": "twu", "name": "Termanu", "longitude": "123.16898"}, {"latitude": "17.69764", "texts": ["chz-x-bible-chioz-v0.txt"], "code": "chz", "name": "Ozumac\u00edn Chinantec", "longitude": "-96.22489"}, {"latitude": "-18.10344", "texts": ["ayr-x-bible-aymbs-v0.txt", "ayr-x-bible-aymsb-v0.txt"], "code": "ayr", "name": "Central Aymara", "longitude": "-68.31289"}, {"latitude": "-27.76708", "texts": ["kgp-x-bible-kaingang-v0.txt"], "code": "kgp", "name": "Kaing\u00e1ng", "longitude": "-52.53937"}, {"latitude": "-14.30173", "texts": ["xav-x-bible-xavan-v0.txt"], "code": "xav", "name": "Xav\u00e1nte", "longitude": "-52.43669"}, {"latitude": "7.20316", "texts": ["nko-x-bible-nkony-v0.txt"], "code": "nko", "name": "Nkonya", "longitude": "0.3209"}, {"latitude": "-6.42586", "texts": ["kgf-x-bible-kube-v0.txt"], "code": "kgf", "name": "Kube", "longitude": "147.5358"}, {"latitude": "-3.29385", "texts": ["jmc-x-bible-kimasha-v0.txt"], "code": "jmc", "name": "Machame", "longitude": "37.07033"}, {"latitude": "-22.64462", "texts": ["kgk-x-bible-kaiwa-v0.txt"], "code": "kgk", "name": "Kaiw\u00e1", "longitude": "-54.96155"}, {"latitude": "-17.63537", "texts": ["cax-x-bible-chiqb-v0.txt", "cax-x-bible-chiqu-v0.txt"], "code": "cax", "name": "Chiquitano", "longitude": "-59.91716"}, {"latitude": "4.62705", "texts": ["ibo-x-bible-igbo-v0.txt"], "code": "ibo", "name": "Igbo", "longitude": "7.23441"}, {"latitude": "-14.64448", "texts": ["cas-x-bible-tsima-v0.txt"], "code": "cas", "name": "Tsiman\u00e9", "longitude": "-67.83756"}, {"latitude": "8.53667", "texts": ["car-x-bible-carib-v0.txt"], "code": "car", "name": "Carib", "longitude": "-63.82088"}, {"latitude": "0.32751", "texts": ["des-x-bible-desan-v0.txt"], "code": "des", "name": "Desano", "longitude": "-69.12526"}, {"latitude": "-32.02504", "texts": ["xho-x-bible-xhosa-v0.txt"], "code": "xho", "name": "Xhosa", "longitude": "27.35462"}, {"latitude": "47.45546", "texts": ["deu-x-bible-deuab-v0.txt", "deu-x-bible-deual-v0.txt", "deu-x-bible-deuea-v0.txt", "deu-x-bible-deueb-v0.txt", "deu-x-bible-deuer-v0.txt", "deu-x-bible-deula-v0.txt", "deu-x-bible-deulb-v0.txt", "deu-x-bible-deune-v0.txt", "deu-x-bible-deupa-v0.txt", "deu-x-bible-deusc-v0.txt", "deu-x-bible-deuzu-v0.txt"], "code": "deu", "name": "Standard German", "longitude": "10.45276"}, {"latitude": "41.91647", "texts": ["cat-x-bible-catalan-v0.txt"], "code": "cat", "name": "Catalan-Valencian-Balear", "longitude": "1.23027"}, {"latitude": "14.75111", "texts": ["cak-x-bible-cakch-v0.txt", "cak-x-bible-cakchiyepo-v0.txt", "cak-x-bible-caksantama-v0.txt", "cak-x-bible-dahl-v0.txt", "cak-x-bible-kakwe-v0.txt", "cak-x-bible-kaqch-v0.txt", "cak-x-bible-kaqchicki-v0.txt", "cak-x-bible-southkaq-v0.txt"], "code": "cak", "name": "Central Cakchiquel", "longitude": "-90.96461"}, {"latitude": "-5.12263", "texts": ["rim-x-bible-nyatu-v0.txt"], "code": "rim", "name": "Nyaturu", "longitude": "34.66567"}, {"latitude": "-12.13298", "texts": ["cao-x-bible-chaco-v0.txt"], "code": "cao", "name": "Ch\u00e1cobo", "longitude": "-66.71641"}, {"latitude": "15.71373", "texts": ["cac-x-bible-chuj-v0.txt", "cac-x-bible-chuji-v0.txt"], "code": "cac", "name": "San Sebasti\u00e1n Coat\u00e1n Chuj", "longitude": "-91.56175"}, {"latitude": "14.79897", "texts": ["caa-x-bible-chort-v0.txt"], "code": "caa", "name": "Chort\u00ed", "longitude": "-89.34349"}, {"latitude": "-6.38206", "texts": ["ded-x-bible-dedua-v0.txt"], "code": "ded", "name": "Dedua", "longitude": "147.62657"}, {"latitude": "1.01297", "texts": ["spy-x-bible-sabao-v0.txt"], "code": "spy", "name": "Sabaot", "longitude": "34.66642"}, {"latitude": "0.55582", "texts": ["tav-x-bible-tatuy-v0.txt"], "code": "tav", "name": "Tatuyo", "longitude": "-70.53265"}, {"latitude": "19.88097", "texts": ["taq-x-bible-tamas-v0.txt"], "code": "taq", "name": "Tamasheq", "longitude": "-1.15972"}, {"latitude": "-5.52462", "texts": ["kyc-x-bible-kyaka-v0.txt"], "code": "kyc", "name": "Kyaka", "longitude": "144.11898"}, {"latitude": "-5.64103", "texts": ["sps-x-bible-sapos-v0.txt"], "code": "sps", "name": "Saposa", "longitude": "154.73162"}, {"latitude": "-6.47599", "texts": ["kyg-x-bible-keyagana-v0.txt"], "code": "kyg", "name": "Keyagana", "longitude": "145.46423"}, {"latitude": "22.52977", "texts": ["czt-x-bible-dahl-v0.txt"], "code": "czt", "name": "Zotung Chin", "longitude": "93.28998"}, {"latitude": "-11.27468", "texts": ["kyz-x-bible-kayabi-v0.txt"], "code": "kyz", "name": "Kayab\u00ed", "longitude": "-55.54792"}, {"latitude": "12.03457", "texts": ["tag-x-bible-tagoi-v0.txt"], "code": "tag", "name": "Tagoi", "longitude": "30.93062"}, {"latitude": "-6.03532", "texts": ["spl-x-bible-selep-v0.txt"], "code": "spl", "name": "Selepet", "longitude": "147.23425"}, {"latitude": "42.01976", "texts": ["tab-x-bible-tabass-v0.txt"], "code": "tab", "name": "Tabassaran", "longitude": "47.83791"}, {"latitude": "27.46229", "texts": ["tac-x-bible-tarah-v0.txt"], "code": "tac", "name": "Lowland Tarahumara", "longitude": "-107.85428"}, {"latitude": "40.0288", "texts": ["spa-x-bible-esbam-v0.txt", "spa-x-bible-esnvi-v0.txt", "spa-x-bible-espdt-v0.txt", "spa-x-bible-esrvg-v0.txt", "spa-x-bible-sparn-v0.txt", "spa-x-bible-sparv-v0.txt", "spa-x-bible-spase-v0.txt"], "code": "spa", "name": "Spanish", "longitude": "-2.98782"}, {"latitude": "11.68162", "texts": ["kyq-x-bible-kenga-v0.txt"], "code": "kyq", "name": "Kenga", "longitude": "18.14635"}, {"latitude": "27.53702", "texts": ["taj-x-bible-taman-v0.txt"], "code": "taj", "name": "Eastern Tamang", "longitude": "85.83794"}, {"latitude": "-6.7028", "texts": ["ssx-x-bible-sembe-v0.txt"], "code": "ssx", "name": "Samberigi", "longitude": "143.95093"}, {"latitude": "6.95495", "texts": ["dwr-x-bible-dawro-v0.txt"], "code": "dwr", "name": "Dawro", "longitude": "36.78195"}, {"latitude": "1.15018", "texts": ["enb-x-bible-marak-v0.txt"], "code": "enb", "name": "Endo", "longitude": "35.58662"}, {"latitude": "-9.39094", "texts": ["nyy-x-bible-kinya-v0.txt"], "code": "nyy", "name": "Nyakyusa-Ngonde", "longitude": "33.88874"}, {"latitude": "-10.16915", "texts": ["dww-x-bible-dawaw-v0.txt"], "code": "dww", "name": "Dawawa", "longitude": "149.99865"}, {"latitude": "12.50885", "texts": ["csk-x-bible-jolka-v0.txt"], "code": "csk", "name": "Jola-Kasa", "longitude": "-16.55386"}, {"latitude": "53.27692", "texts": ["eng-x-bible-enast-v0.txt", "eng-x-bible-engba-v0.txt", "eng-x-bible-engbisho-v0.txt", "eng-x-bible-engcoverdale-v0.txt", "eng-x-bible-engcpdv-v0.txt", "eng-x-bible-engdr-v0.txt", "eng-x-bible-enggeneva-v0.txt", "eng-x-bible-engkj-v0.txt", "eng-x-bible-englebwbt-v0.txt", "eng-x-bible-engnw-v0.txt", "eng-x-bible-engst-v0.txt", "eng-x-bible-engte-v0.txt", "eng-x-bible-engwb-v0.txt", "eng-x-bible-engyl-v0.txt"], "code": "eng", "name": "English", "longitude": "-2.23831"}, {"latitude": "51.28023", "texts": ["enm-x-bible-engtynd-v0.txt", "enm-x-bible-engwycl-v0.txt"], "code": "enm", "name": "Middle English", "longitude": "1.07890"}, {"latitude": "-7.07708", "texts": ["hot-x-bible-hotemal-v0.txt"], "code": "hot", "name": "Hote", "longitude": "146.86873"}, {"latitude": "7.73028", "texts": ["ndz-x-bible-ndogo-v0.txt"], "code": "ndz", "name": "Ndogo", "longitude": "27.55877"}, {"latitude": "23.81919", "texts": ["csy-x-bible-chinsiyi-v0.txt"], "code": "csy", "name": "Siyin Chin", "longitude": "93.68843"}, {"latitude": "-13.42326", "texts": ["nya-x-bible-chuchewa-v0.txt"], "code": "nya", "name": "Nyanja", "longitude": "34.09663"}, {"latitude": "-3.30638", "texts": ["nyf-x-bible-girya-v0.txt"], "code": "nyf", "name": "Giryama", "longitude": "39.6648"}, {"latitude": "-30.62109", "texts": ["afr-x-bible-afdb-v0.txt", "afr-x-bible-afr53-v0.txt", "afr-x-bible-afr83-v0.txt", "afr-x-bible-afraba-v0.txt", "afr-x-bible-afrnlv-v0.txt"], "code": "afr", "name": "Afrikaans", "longitude": "21.61887"}, {"latitude": "10.63451", "texts": ["sil-x-bible-sisaa-v0.txt"], "code": "sil", "name": "Tumulung Sisaala", "longitude": "-1.79707"}, {"latitude": "18.05412", "texts": ["maq-x-bible-chiquihuitla\u0301n-v0.txt"], "code": "maq", "name": "Chiquihuitl\u00e1n Mazatec", "longitude": "-96.66588"}, {"latitude": "19.04129", "texts": ["npl-x-bible-nahsp-v0.txt"], "code": "npl", "name": "Nahuatl, Southeastern Puebla", "longitude": "-98.20619"}, {"latitude": "17.93438", "texts": ["mar-x-bible-marathi-v0.txt"], "code": "mar", "name": "Marathi", "longitude": "76.66649"}, {"latitude": "18.25558", "texts": ["mau-x-bible-huautla-v0.txt"], "code": "mau", "name": "Huautla Mazatec", "longitude": "-96.72403"}, {"latitude": "-9.79791", "texts": ["snc-x-bible-sinau-v0.txt"], "code": "snc", "name": "Sinaugoro", "longitude": "147.86105"}, {"latitude": "10.38842", "texts": ["maw-x-bible-mampruli-v0.txt"], "code": "maw", "name": "Mampruli", "longitude": "-0.74675"}, {"latitude": "-3.63897", "texts": ["mav-x-bible-satere\u0301mawe\u0301-v0.txt"], "code": "mav", "name": "Sater\u00e9-Maw\u00e9", "longitude": "-56.87489"}, {"latitude": "0.32107", "texts": ["snn-x-bible-siona-v0.txt"], "code": "snn", "name": "Siona", "longitude": "-75.89759"}, {"latitude": "-3.65508", "texts": ["aon-x-bible-arape-v0.txt"], "code": "aon", "name": "Bumbita Arapesh", "longitude": "142.8592"}, {"latitude": "-9.03136", "texts": ["aom-x-bible-oemie-v0.txt"], "code": "aom", "name": "\u00d6mie", "longitude": "148.10712"}, {"latitude": "19.73569", "texts": ["maz-x-bible-mazahua-v0.txt"], "code": "maz", "name": "Mazahua Central", "longitude": "-100.01831"}, {"latitude": "17.79855", "texts": ["cso-x-bible-chids-v0.txt"], "code": "cso", "name": "Sochiapan Chinantec", "longitude": "-96.60795"}, {"latitude": "17.02093", "texts": ["lac-x-bible-lacandon-v0.txt"], "code": "lac", "name": "Lacandon", "longitude": "-91.42348"}, {"latitude": "18.19994", "texts": ["maa-x-bible-mazatecsanantonio-v0.txt", "maa-x-bible-mazatecsanjeromino-v0.txt"], "code": "maa", "name": "San Jer\u00f3nimo Tec\u00f3atl Mazatec", "longitude": "-96.88332"}, {"latitude": "12.63958", "texts": ["bku-x-bible-buhid-v0.txt"], "code": "bku", "name": "Buhid", "longitude": "121.20976"}, {"latitude": "-1.43707", "texts": ["npy-x-bible-napu-v0.txt"], "code": "npy", "name": "Napu", "longitude": "120.33786"}, {"latitude": "-7.98335", "texts": ["mad-x-bible-madur-v0.txt"], "code": "mad", "name": "Madura", "longitude": "112.96754"}, {"latitude": "-6.13188", "texts": ["snp-x-bible-siane-v0.txt", "snp-x-bible-sianl-v0.txt"], "code": "snp", "name": "Siane", "longitude": "145.24661"}, {"latitude": "41.90264", "texts": ["lat-x-bible-novavulgata-v0.txt", "lat-x-bible-vulgataclementina-v0.txt"], "code": "lat", "name": "Latin", "longitude": "12.45021"}, {"latitude": "7.12363", "texts": ["mah-x-bible-marshallese-v0.txt"], "code": "mah", "name": "Marshallese", "longitude": "171.36596"}, {"latitude": "-5.65551", "texts": ["mak-x-bible-makas-v0.txt"], "code": "mak", "name": "Makasar", "longitude": "119.8381"}, {"latitude": "15.46596", "texts": ["mam-x-bible-dahl-v0.txt", "mam-x-bible-mamce-v0.txt", "mam-x-bible-mamso-v0.txt", "mam-x-bible-mamts-v0.txt", "mam-x-bible-nothernmam-v0.txt"], "code": "mam", "name": "Northern Mam", "longitude": "-91.80395"}, {"latitude": "-9.77284", "texts": ["aoz-x-bible-uabmeto-v0.txt"], "code": "aoz", "name": "Uab Meto", "longitude": "124.14365"}, {"latitude": "6.77903", "texts": ["las-x-bible-lambatogo-v0.txt"], "code": "las", "name": "Lama", "longitude": "0.99542"}, {"latitude": "-7.99922", "texts": ["ghs-x-bible-guhus-v0.txt"], "code": "ghs", "name": "Guhu-Samane", "longitude": "147.22844"}, {"latitude": "22.56842", "texts": ["lhu-x-bible-lahu-v0.txt"], "code": "lhu", "name": "Lahu", "longitude": "100.13079"}, {"latitude": "-15.52979", "texts": ["srq-x-bible-sirio-v0.txt"], "code": "srq", "name": "Sirion\u00f3", "longitude": "-63.9688"}, {"latitude": "-10.29763", "texts": ["kqf-x-bible-kakabai-v0.txt"], "code": "kqf", "name": "Kakabai", "longitude": "150.02702"}, {"latitude": "1.14537", "texts": ["kbh-x-bible-camsa-v0.txt"], "code": "kbh", "name": "Cams\u00e1", "longitude": "-76.8931"}, {"latitude": "-10.3115", "texts": ["tbo-x-bible-tawal-v0.txt"], "code": "tbo", "name": "Tawala", "longitude": "150.64383"}, {"latitude": "-7.20938", "texts": ["kbm-x-bible-iwal-v0.txt"], "code": "kbm", "name": "Iwal", "longitude": "146.98309"}, {"latitude": "11.0376", "texts": ["ttr-x-bible-tatar-v0.txt"], "code": "ttr", "name": "Tera", "longitude": "11.80953"}, {"latitude": "14.91766", "texts": ["ttq-x-bible-tamaj-v0.txt"], "code": "ttq", "name": "Tawallammat Tamajaq", "longitude": "3.71384"}, {"latitude": "42.609", "texts": ["ita-x-bible-intalianobible-v0.txt", "ita-x-bible-italiandio-v0.txt", "ita-x-bible-italianrivedutbibv-v0.txt"], "code": "ita", "name": "Italian", "longitude": "12.97622"}, {"latitude": "16.21965", "texts": ["zam-x-bible-zamia-v0.txt"], "code": "zam", "name": "Miahuatl\u00e1n Zapotec", "longitude": "-96.66467"}, {"latitude": "-5.954", "texts": ["uvl-x-bible-lote-v0.txt"], "code": "uvl", "name": "Lote", "longitude": "150.9105"}, {"latitude": "6.69736", "texts": ["mzk-x-bible-mambn-v0.txt"], "code": "mzk", "name": "Nigeria Mambila", "longitude": "11.31614"}, {"latitude": "-5.52893", "texts": ["ssd-x-bible-siroi-v0.txt"], "code": "ssd", "name": "Siroi", "longitude": "145.9938"}, {"latitude": "17.73286", "texts": ["itv-x-bible-itawit-v0.txt"], "code": "itv", "name": "Itawit", "longitude": "121.5796"}, {"latitude": "7.17146", "texts": ["kbp-x-bible-kabiye-v0.txt"], "code": "kbp", "name": "Kabiy\u00e9", "longitude": "1.076"}, {"latitude": "-10.65985", "texts": ["tte-x-bible-tubet-v0.txt"], "code": "tte", "name": "Bwanabwana", "longitude": "151.03439"}, {"latitude": "-12.02098", "texts": ["djr-x-bible-djambarr-v0.txt"], "code": "djr", "name": "Djambarrpuyngu", "longitude": "135.59014"}, {"latitude": "14.66859", "texts": ["jic-x-bible-wbt-v0.txt"], "code": "jic", "name": "Tol", "longitude": "-87.03719"}, {"latitude": "-4.45258", "texts": ["byx-x-bible-qaqet-v0.txt"], "code": "byx", "name": "Qaqet", "longitude": "151.70192"}, {"latitude": "16.82585", "texts": ["zac-x-bible-zaoco-v0.txt"], "code": "zac", "name": "Ocotl\u00e1n Zapotec", "longitude": "-96.72633"}, {"latitude": "17.31625", "texts": ["cle-x-bible-chinandesanjl-v0.txt"], "code": "cle", "name": "Lealao Chinantec", "longitude": "-95.92651"}, {"latitude": "-6.89261", "texts": ["byr-x-bible-baruy-v0.txt"], "code": "byr", "name": "Baruya", "longitude": "145.81816"}, {"latitude": "-6.13629", "texts": ["imo-x-bible-imboungu-v0.txt"], "code": "imo", "name": "Imbongu", "longitude": "144.02573"}, {"latitude": "-3.45136", "texts": ["jiv-x-bible-shuar-v0.txt"], "code": "jiv", "name": "Shuar", "longitude": "-78.18923"}, {"latitude": "13.92109", "texts": ["dje-x-bible-zarma-v0.txt"], "code": "dje", "name": "Zarma", "longitude": "1.94971"}, {"latitude": "-6.51563", "texts": ["tbg-x-bible-tairo-v0.txt"], "code": "tbg", "name": "North Tairora", "longitude": "145.95929"}, {"latitude": "-16.55711", "texts": ["fij-x-bible-fijih-v0.txt"], "code": "fij", "name": "Fijian", "longitude": "179.24208"}, {"latitude": "10.20039", "texts": ["sig-x-bible-paasa-v0.txt"], "code": "sig", "name": "Paasaal", "longitude": "-1.8048"}, {"latitude": "4.552", "texts": ["djk-x-bible-aukan-v0.txt"], "code": "djk", "name": "Aukan", "longitude": "-54.9525"}, {"latitude": "64.22287", "texts": ["fin-x-bible-finna-v0.txt", "fin-x-bible-finnb-v0.txt", "fin-x-bible-finnc-v0.txt"], "code": "fin", "name": "Finnish", "longitude": "26.33121"}, {"latitude": "42.96804", "texts": ["eus-x-bible-dahl-v0.txt"], "code": "eus", "name": "Basque", "longitude": "-2.07063"}, {"latitude": "14.49256", "texts": ["tha-x-bible-thai-v0.txt", "tha-x-bible-thaik-v0.txt"], "code": "tha", "name": "Thai", "longitude": "100.75985"}, {"latitude": "-6.38898", "texts": ["usa-x-bible-usaru-v0.txt"], "code": "usa", "name": "Usarufa", "longitude": "145.63291"}, {"latitude": "8.38799", "texts": ["ceb-x-bible-cebua-v0.txt", "ceb-x-bible-cebur-v0.txt"], "code": "ceb", "name": "Cebuano", "longitude": "124.36662"}, {"latitude": "-8.89880", "texts": ["okv-x-bible-oroka-v0.txt"], "code": "okv", "name": "Orokaiva", "longitude": "148.18929"}, {"latitude": "5.25933", "texts": ["som-x-bible-somal-v0.txt"], "code": "som", "name": "Somali", "longitude": "47.04801"}, {"latitude": "54.9485", "texts": ["dan-x-bible-dabbd-v0.txt", "dan-x-bible-daneinsacht-v0.txt", "dan-x-bible-danis-v0.txt"], "code": "dan", "name": "Danish", "longitude": "9.51882"}, {"latitude": "-5.64555", "texts": ["dah-x-bible-gwaha-v0.txt"], "code": "dah", "name": "Gwahatike", "longitude": "146.45496"}, {"latitude": "7.57117", "texts": ["noa-x-bible-woume-v0.txt"], "code": "noa", "name": "Woun Meu", "longitude": "-78.00241"}, {"latitude": "16.96335", "texts": ["mxp-x-bible-dahl-v0.txt", "mxp-x-bible-mitla-v0.txt"], "code": "mxp", "name": "Tlahuitoltepec Mixe", "longitude": "-96.11857"}, {"latitude": "16.89123", "texts": ["mxq-x-bible-mijuq-v0.txt"], "code": "mxq", "name": "Juquila Mixe", "longitude": "-95.84841"}, {"latitude": "49.88641", "texts": ["ces-x-bible-czeku-v0.txt", "ces-x-bible-czeprv-v0.txt", "ces-x-bible-czkra-v0.txt", "ces-x-bible-cznov-v0.txt", "ces-x-bible-czpre-v0.txt"], "code": "ces", "name": "Czech", "longitude": "15.37182"}, {"latitude": "42.42568", "texts": ["dar-x-bible-engda-v0.txt"], "code": "dar", "name": "Dargwa", "longitude": "47.43876"}, {"latitude": "4.14191", "texts": ["kkj-x-bible-kako-v0.txt"], "code": "kkj", "name": "Kako", "longitude": "14.43822"}, {"latitude": "-8.68756", "texts": ["nou-x-bible-ewano-v0.txt"], "code": "nou", "name": "Ewage-Notu", "longitude": "148.40542"}, {"latitude": "17.61552", "texts": ["mxb-x-bible-mixtz-v0.txt"], "code": "mxb", "name": "Tezoatl\u00e1n Mixtec", "longitude": "-97.90017"}, {"latitude": "59.91386", "texts": ["nor-x-bible-norw-v0.txt"], "code": "nor", "name": "Norwegian", "longitude": "10.75224"}, {"latitude": "16.99837", "texts": ["ifu-x-bible-mayoyaifuga-v0.txt"], "code": "ifu", "name": "Mayoyao Ifugao", "longitude": "121.29005"}, {"latitude": "-9.07", "texts": ["kpr-x-bible-korafe-v0.txt"], "code": "kpr", "name": "Korafe", "longitude": "149.26655"}, {"latitude": "64.05268", "texts": ["kpv-x-bible-komizyrian-v0.txt"], "code": "kpv", "name": "Komi-Zyrian", "longitude": "54.94599"}, {"latitude": "-5.16446", "texts": ["kpw-x-bible-kobon-v0.txt"], "code": "kpw", "name": "Kobon", "longitude": "144.45995"}, {"latitude": "-9.06973", "texts": ["kpx-x-bible-koiali-v0.txt"], "code": "kpx", "name": "Mountain Koiali", "longitude": "147.38403"}, {"latitude": "-15.33313", "texts": ["trn-x-bible-trini-v0.txt"], "code": "trn", "name": "Trinitario", "longitude": "-65.40956"}, {"latitude": "16.70985", "texts": ["ify-x-bible-antipoifuga-v0.txt"], "code": "ify", "name": "Keley-I Kallahan", "longitude": "121.03484"}, {"latitude": "-7.28798", "texts": ["xla-x-bible-kamul-v0.txt"], "code": "xla", "name": "Kamula", "longitude": "142.63931"}, {"latitude": "14.96027", "texts": ["pam-x-bible-pampa-v0.txt"], "code": "pam", "name": "Pampangan", "longitude": "120.50183"}, {"latitude": "8.00522", "texts": ["nfr-x-bible-nafaa-v0.txt"], "code": "nfr", "name": "Nafaanra", "longitude": "-2.51001"}, {"latitude": "16.82656", "texts": ["ifb-x-bible-ayangifug-v0.txt"], "code": "ifb", "name": "Batad Ifugao", "longitude": "121.23011"}, {"latitude": "6.88727", "texts": ["kpg-x-bible-kapin-v0.txt"], "code": "kpg", "name": "Kapingamarangi", "longitude": "158.20246"}, {"latitude": "-11.18812", "texts": ["kpj-x-bible-karaja-v0.txt"], "code": "kpj", "name": "Karaj\u00e1", "longitude": "-50.34918"}, {"latitude": "40.0799", "texts": ["pao-x-bible-paiut-v0.txt"], "code": "pao", "name": "Northern Paiute", "longitude": "-119.53609"}, {"latitude": "10.22769", "texts": ["cme-x-bible-cerma-v0.txt"], "code": "cme", "name": "Cerma", "longitude": "-4.85222"}, {"latitude": "16.66464", "texts": ["ifk-x-bible-tuwaliifugao-v0.txt"], "code": "ifk", "name": "Tuwali Ifugao", "longitude": "121.11348"}, {"latitude": "37.42263", "texts": ["syc-x-bible-unbou-v0.txt"], "code": "syc", "name": "Syriac", "longitude": "41.623"}, {"latitude": "-4.35089", "texts": ["dig-x-bible-digo-v0.txt"], "code": "dig", "name": "Digo", "longitude": "39.42845"}, {"latitude": "24.429", "texts": ["hlt-x-bible-chmat-v0.txt"], "code": "hlt", "name": "Nga La", "longitude": "94.958"}, {"latitude": "-3.74711", "texts": ["gfk-x-bible-patpa-v0.txt"], "code": "gfk", "name": "Patpatar", "longitude": "152.49294"}, {"latitude": "-5.763", "texts": ["nii-x-bible-nii-v0.txt"], "code": "nii", "name": "Nii", "longitude": "144.51779"}, {"latitude": "-5.26603", "texts": ["hla-x-bible-halia-v0.txt"], "code": "hla", "name": "Halia", "longitude": "154.66185"}, {"latitude": "-0.86809", "texts": ["blz-x-bible-balan-v0.txt"], "code": "blz", "name": "Balantak", "longitude": "123.28932"}, {"latitude": "17.4451", "texts": ["zar-x-bible-zarin-v0.txt"], "code": "zar", "name": "Rinc\u00f3n Zapotec", "longitude": "-96.31441"}, {"latitude": "-6.35951", "texts": ["gog-x-bible-chigo-v0.txt"], "code": "gog", "name": "Gogo", "longitude": "35.48066"}, {"latitude": "12.48255", "texts": ["cwt-x-bible-kwata-v0.txt"], "code": "cwt", "name": "Kuwaataay", "longitude": "-16.74835"}, {"latitude": "-13.62702", "texts": ["smo-x-bible-samoan-v0.txt"], "code": "smo", "name": "Samoan", "longitude": "-172.48244"}, {"latitude": "10.30982", "texts": ["izr-x-bible-izere-v0.txt"], "code": "izr", "name": "Izere", "longitude": "9.84517"}, {"latitude": "7.54885", "texts": ["blh-x-bible-belle-v0.txt"], "code": "blh", "name": "Kuwaa", "longitude": "-9.9765"}, {"latitude": "46.9304", "texts": ["got-x-bible-gothi-v0.txt"], "code": "got", "name": "Gothic", "longitude": "29.97861"}, {"latitude": "21.95399", "texts": ["hch-x-bible-huich-v0.txt"], "code": "hch", "name": "Huichol", "longitude": "-104.06228"}, {"latitude": "0.62689", "texts": ["gor-x-bible-gorantal-v0.txt"], "code": "gor", "name": "Gorontalo", "longitude": "122.28765"}, {"latitude": "11.54087", "texts": ["bwq-x-bible-bobom-v0.txt"], "code": "bwq", "name": "Southern Bobo Madar\u00e9", "longitude": "-4.26497"}, {"latitude": "0.90691", "texts": ["nia-x-bible-nias-v0.txt"], "code": "nia", "name": "Nias", "longitude": "97.49614"}, {"latitude": "10.57629", "texts": ["bwu-x-bible-buli-v0.txt"], "code": "bwu", "name": "Buli", "longitude": "-1.26748"}, {"latitude": "20.951666", "texts": ["ory-x-bible-oriya-v0.txt"], "code": "ory", "name": "Oriya", "longitude": "85.098524"}, {"latitude": "-13.84714", "texts": ["quy-x-bible-ayaquech-v0.txt", "quy-x-bible-queay-v0.txt"], "code": "quy", "name": "Ayacucho Quechua", "longitude": "-74.32246"}, {"latitude": "26.43476", "texts": ["ntp-x-bible-tepen-v0.txt"], "code": "ntp", "name": "Northern Tepehuan", "longitude": "-107.37932"}, {"latitude": "7.86137", "texts": ["ntr-x-bible-ntrub-v0.txt"], "code": "ntr", "name": "Delo", "longitude": "0.53353"}, {"latitude": "-3.57932", "texts": ["aoj-x-bible-filif-v0.txt", "aoj-x-bible-mufia-v0.txt"], "code": "aoj", "name": "Mufian", "longitude": "142.95453"}, {"latitude": "-6.99891", "texts": ["mmo-x-bible-buamg-v0.txt"], "code": "mmo", "name": "Mangga Buang", "longitude": "146.68468"}, {"latitude": "-9.57135", "texts": ["qub-x-bible-quehh-v0.txt"], "code": "qub", "name": "Huallaga Hu\u00e1nuco Quechua", "longitude": "-75.59401"}, {"latitude": "12.71302", "texts": ["sbd-x-bible-samos-v0.txt"], "code": "sbd", "name": "Southern Samo", "longitude": "-2.9052"}, {"latitude": "-6.1715", "texts": ["quf-x-bible-quela-v0.txt"], "code": "quf", "name": "Lambayeque Quechua", "longitude": "-79.46799"}, {"latitude": "-19.43034", "texts": ["quh-x-bible-quesb-v0.txt", "quh-x-bible-qusbo-v0.txt"], "code": "quh", "name": "South Bolivian Quechua", "longitude": "-66.44806"}, {"latitude": "-5.92188", "texts": ["aso-x-bible-dano-v0.txt"], "code": "aso", "name": "Dano", "longitude": "145.2539"}, {"latitude": "-14.40136", "texts": ["qul-x-bible-quenb-v0.txt", "qul-x-bible-qunbo-v0.txt"], "code": "qul", "name": "North Bolivian Quechua", "longitude": "-68.78939"}, {"latitude": "-6.51663", "texts": ["bmu-x-bible-burum-v0.txt"], "code": "bmu", "name": "Burum-Mindik", "longitude": "147.33332"}, {"latitude": "-3.37081", "texts": ["mvp-x-bible-duri-v0.txt"], "code": "mvp", "name": "Duri", "longitude": "119.87095"}, {"latitude": "9.85472", "texts": ["shk-x-bible-shill-v0.txt"], "code": "shk", "name": "Shilluk", "longitude": "31.79263"}, {"latitude": "-5.58045", "texts": ["ata-x-bible-ata-v0.txt"], "code": "ata", "name": "Pele-Ata", "longitude": "151.05018"}, {"latitude": "11.02063", "texts": ["pbi-x-bible-podok-v0.txt"], "code": "pbi", "name": "Parkwa", "longitude": "14.09644"}, {"latitude": "-5.94085", "texts": ["yut-x-bible-yopno-v0.txt"], "code": "yut", "name": "Yopno", "longitude": "146.66102"}, {"latitude": "-6.08274", "texts": ["yuw-x-bible-yau-v0.txt"], "code": "yuw", "name": "Yau", "longitude": "146.84099"}, {"latitude": "-4.07921", "texts": ["mva-x-bible-dahl-v0.txt"], "code": "mva", "name": "Manam", "longitude": "145.03346"}, {"latitude": "-3.74954", "texts": ["yuj-x-bible-kayur-v0.txt"], "code": "yuj", "name": "Karkar-Yuri", "longitude": "141.09822"}, {"latitude": "-4.57978", "texts": ["wsk-x-bible-waski-v0.txt"], "code": "wsk", "name": "Waskia", "longitude": "145.97883"}, {"latitude": "63.48375", "texts": ["isl-x-bible-icelandic-v0.txt"], "code": "isl", "name": "Icelandic", "longitude": "-19.02117"}, {"latitude": "-6.42709", "texts": ["naf-x-bible-nabak-v0.txt"], "code": "naf", "name": "Nabak", "longitude": "146.96615"}, {"latitude": "21.06392", "texts": ["nhe-x-bible-nahhe-v0.txt"], "code": "nhe", "name": "Eastern Huasteca Nahuatl", "longitude": "-97.90768"}, {"latitude": "16.04", "texts": ["zao-x-bible-zaozo-v0.txt"], "code": "zao", "name": "Ozolotepec Zapotec", "longitude": "-96.36863"}, {"latitude": "18.88539", "texts": ["nhg-x-bible-nahtt-v0.txt"], "code": "nhg", "name": "Tetelcingo Nahuatl", "longitude": "-98.89301"}, {"latitude": "20.28901", "texts": ["mwq-x-bible-chich-v0.txt"], "code": "mwq", "name": "M\u00fcn Chin", "longitude": "94.39293"}, {"latitude": "16.45479", "texts": ["zai-x-bible-zaist-v0.txt"], "code": "zai", "name": "Isthmus Zapotec", "longitude": "-94.84438"}, {"latitude": "17.14274", "texts": ["zad-x-bible-zayag-v0.txt"], "code": "zad", "name": "Cajonos Zapotec", "longitude": "-96.33521"}, {"latitude": "20.09648", "texts": ["nhi-x-bible-nahte-v0.txt"], "code": "nhi", "name": "Tenango Nahuatl", "longitude": "-97.80486"}, {"latitude": "-3.2929", "texts": ["ong-x-bible-olo-v0.txt"], "code": "ong", "name": "Olo", "longitude": "142.1308"}, {"latitude": "9.33848", "texts": ["vag-x-bible-vagla-v0.txt"], "code": "vag", "name": "Vagla", "longitude": "-2.31333"}, {"latitude": "6.37256", "texts": ["nhu-x-bible-nooni-v0.txt"], "code": "nhu", "name": "Noone", "longitude": "10.57067"}, {"latitude": "26.09041", "texts": ["mai-x-bible-maithili-v0.txt"], "code": "mai", "name": "Maithili", "longitude": "86.42743"}, {"latitude": "21.3711", "texts": ["nhw-x-bible-nahhw-v0.txt"], "code": "nhw", "name": "Western Huasteca Nahuatl", "longitude": "-98.77114"}, {"latitude": "22.91361", "texts": ["cfm-x-bible-chinf-v0.txt", "cfm-x-bible-chinfalam-v0.txt"], "code": "cfm", "name": "Falam Chin", "longitude": "93.67777"}, {"latitude": "17.1869", "texts": ["zav-x-bible-zayat-v0.txt"], "code": "zav", "name": "Yatzachi Zapotec", "longitude": "-96.28398"}, {"latitude": "16.86849", "texts": ["zaw-x-bible-zamit-v0.txt"], "code": "zaw", "name": "Mitla Zapotec", "longitude": "-96.29434"}, {"latitude": "17.28215", "texts": ["zat-x-bible-zatab-v0.txt"], "code": "zat", "name": "Tabaa Zapotec", "longitude": "-96.2777"}, {"latitude": "18.18843", "texts": ["nhy-x-bible-nahno-v0.txt"], "code": "nhy", "name": "Northern Oaxaca Nahuatl", "longitude": "-96.97483"}, {"latitude": "17.03452", "texts": ["zas-x-bible-zaalb-v0.txt"], "code": "zas", "name": "Santo Domingo Albarradas Zapotec", "longitude": "-96.28104"}, {"latitude": "8.90294", "texts": ["tem-x-bible-themn-v0.txt"], "code": "tem", "name": "Themne", "longitude": "-12.33307"}, {"latitude": "-4.30064", "texts": ["ian-x-bible-iatmul-v0.txt"], "code": "ian", "name": "Iatmul", "longitude": "143.31566"}, {"latitude": "15.34372", "texts": ["ttc-x-bible-tekit-v0.txt"], "code": "ttc", "name": "Tektiteko", "longitude": "-92.01564"}, {"latitude": "20.37979", "texts": ["tos-x-bible-totsi-v0.txt"], "code": "tos", "name": "Highland Totonac", "longitude": "-97.61589"}, {"latitude": "20.56709", "texts": ["top-x-bible-totpa-v0.txt"], "code": "top", "name": "Papantla Totonac", "longitude": "-97.25539"}, {"latitude": "49.35573", "texts": ["ukr-x-bible-ukrai-v0.txt", "ukr-x-bible-ukrnt-v0.txt"], "code": "ukr", "name": "Ukrainian", "longitude": "31.16814"}, {"latitude": "11.30368", "texts": ["mal-x-bible-mayal-v0.txt"], "code": "mal", "name": "Malayalam", "longitude": "75.94948"}, {"latitude": "16.25715", "texts": ["toj-x-bible-tojol-v0.txt"], "code": "toj", "name": "Tojolabal", "longitude": "-91.78248"}, {"latitude": "-23.79642", "texts": ["toh-x-bible-giton-v0.txt"], "code": "toh", "name": "Gitonga", "longitude": "35.15768"}, {"latitude": "20.65321", "texts": ["too-x-bible-totxi-v0.txt"], "code": "too", "name": "Xicotepec de Ju\u00e1rez Totonac", "longitude": "-97.7463"}, {"latitude": "20.54467", "texts": ["toc-x-bible-toton-v0.txt"], "code": "toc", "name": "Coyutla Totonac", "longitude": "-97.68515"}, {"latitude": "36.62492", "texts": ["kor-x-bible-korean-v0.txt", "kor-x-bible-kornt-v0.txt"], "code": "kor", "name": "Korean", "longitude": "127.85022"}, {"latitude": "18.32514", "texts": ["hat-x-bible-krayh-v0.txt", "hat-x-bible-krays-v0.txt"], "code": "hat", "name": "Haitian Creole French", "longitude": "-73.04597"}, {"latitude": "11.63201", "texts": ["spp-x-bible-supyi-v0.txt"], "code": "spp", "name": "Supyire Senoufo", "longitude": "-5.87709"}, {"latitude": "3.14984", "texts": ["way-x-bible-wayan-v0.txt"], "code": "way", "name": "Wayana", "longitude": "-54.21485"}, {"latitude": "-3.99109", "texts": ["hub-x-bible-huambbible-v0.txt", "hub-x-bible-huambscrip-v0.txt"], "code": "hub", "name": "Huambisa", "longitude": "-77.97965"}, {"latitude": "8.25299", "texts": ["udu-x-bible-uduk-v0.txt"], "code": "udu", "name": "Uduk", "longitude": "34.43319"}, {"latitude": "46.12207", "texts": ["hun-x-bible-hungakarol-v0.txt", "hun-x-bible-magyarbibrevisited-v0.txt"], "code": "hun", "name": "Hungarian", "longitude": "19.50894"}, {"latitude": "-5.97212", "texts": ["hui-x-bible-huli-v0.txt"], "code": "hui", "name": "Huli", "longitude": "142.96326"}, {"latitude": "8.20941", "texts": ["nus-x-bible-nuer-v0.txt"], "code": "nus", "name": "Nuer", "longitude": "31.09909"}, {"latitude": "21.09626", "texts": ["nch-x-bible-nahhc-v0.txt"], "code": "nch", "name": "Central Huasteca Nahuatl", "longitude": "-98.43561"}, {"latitude": "-1.51775", "texts": ["huu-x-bible-huitomuri-v0.txt"], "code": "huu", "name": "Murui Huitoto", "longitude": "-73.84075"}, {"latitude": "16.09536", "texts": ["cya-x-bible-chano-v0.txt"], "code": "cya", "name": "Nopala Chatino", "longitude": "-97.13392"}, {"latitude": "18.34119", "texts": ["ncl-x-bible-nahmi-v0.txt"], "code": "ncl", "name": "Michoac\u00e1n Nahuatl", "longitude": "-103.36118"}, {"latitude": "-15.82467", "texts": ["gyr-x-bible-guaro-v0.txt", "gyr-x-bible-guaru-v0.txt"], "code": "gyr", "name": "Guarayu", "longitude": "-61.69335"}, {"latitude": "21.6153", "texts": ["hus-x-bible-huastecsanluisp-v0.txt", "hus-x-bible-huastveracscript-v0.txt"], "code": "hus", "name": "Veracruz Huastec", "longitude": "-98.50276"}, {"latitude": "-5.84161", "texts": ["nca-x-bible-iyo-v0.txt"], "code": "nca", "name": "Iyo", "longitude": "146.09235"}, {"latitude": "9.20828", "texts": ["tfr-x-bible-terib-v0.txt"], "code": "tfr", "name": "Teribe", "longitude": "-82.661"}, {"latitude": "-6.1868", "texts": ["yby-x-bible-yawey-v0.txt"], "code": "yby", "name": "Yaweyuha", "longitude": "145.35873"}, {"latitude": "17.30309", "texts": ["zsr-x-bible-zrinc-v0.txt"], "code": "zsr", "name": "Southern Rincon Zapotec", "longitude": "-96.3775"}, {"latitude": "-10.82553", "texts": ["stn-x-bible-owa-v0.txt"], "code": "stn", "name": "Owa", "longitude": "162.30467"}, {"latitude": "16.39642", "texts": ["mjc-x-bible-mixjc-v0.txt"], "code": "mjc", "name": "San Juan Colorado Mixtec", "longitude": "-97.92788"}, {"latitude": "-9.15565", "texts": ["aai-x-bible-arifa-v0.txt"], "code": "aai", "name": "Arifama-Miniafia", "longitude": "149.24638"}, {"latitude": "-7.19444", "texts": ["aak-x-bible-ankav-v0.txt"], "code": "aak", "name": "Ankave", "longitude": "145.75421"}, {"latitude": "-3.97222", "texts": ["aau-x-bible-abau-v0.txt"], "code": "aau", "name": "Abau", "longitude": "141.32359"}, {"latitude": "6.03321", "texts": ["bex-x-bible-jurmo-v0.txt"], "code": "bex", "name": "Jur Modo", "longitude": "29.97403"}, {"latitude": "-3.06952", "texts": ["kto-x-bible-kuot -v0.txt"], "code": "kto", "name": "Kuot", "longitude": "151.53735"}, {"latitude": "23.15844", "texts": ["stp-x-bible-tepes-v0.txt"], "code": "stp", "name": "Southeastern Tepehuan", "longitude": "-103.98322"}, {"latitude": "14.40749", "texts": ["dts-x-bible-dogot-v0.txt"], "code": "dts", "name": "Toro So Dogon", "longitude": "-3.10006"}, {"latitude": "-5.38732", "texts": ["bhl-x-bible-bimin-v0.txt"], "code": "bhl", "name": "Bimin", "longitude": "142.04036"}, {"latitude": "18.0993", "texts": ["vmy-x-bible-mazay-v0.txt"], "code": "vmy", "name": "Ayautla Mazatec", "longitude": "-96.59516"}, {"latitude": "8.57695", "texts": ["sab-x-bible-bugle-v0.txt"], "code": "sab", "name": "Buglere", "longitude": "-81.25648"}, {"latitude": "4.62851", "texts": ["ann-x-bible-obolo-v0.txt"], "code": "ann", "name": "Obolo", "longitude": "7.81985"}, {"latitude": "-4.17306", "texts": ["rai-x-bible-ramoa-v0.txt"], "code": "rai", "name": "Ramoaaina", "longitude": "152.45078"}, {"latitude": "5.97237", "texts": ["anv-x-bible-denya-v0.txt"], "code": "anv", "name": "Denya", "longitude": "9.39989"}, {"latitude": "31.15621", "texts": ["prs-x-bible-dari-v0.txt"], "code": "prs", "name": "Eastern Farsi", "longitude": "62.14612"}, {"latitude": "17.2134", "texts": ["zpu-x-bible-zyala-v0.txt"], "code": "zpu", "name": "Yal\u00e1lag Zapotec", "longitude": "-96.21834"}, {"latitude": "-8.57376", "texts": ["bhp-x-bible-bima-v0.txt"], "code": "bhp", "name": "Bima", "longitude": "118.44507"}, {"latitude": "-2.1143", "texts": ["lid-x-bible-nyindrou-v0.txt"], "code": "lid", "name": "Nyindrou", "longitude": "146.62734"}, {"latitude": "16.31585", "texts": ["mih-x-bible-mixch-v0.txt"], "code": "mih", "name": "Chayuco Mixtec", "longitude": "-97.81145"}, {"latitude": "27.30894", "texts": ["lif-x-bible-limbu-v0.txt"], "code": "lif", "name": "Limbu", "longitude": "87.64366"}, {"latitude": "9.52392", "texts": ["lia-x-bible-westlimba-v0.txt"], "code": "lia", "name": "West-Central Limba", "longitude": "-12.31378"}, {"latitude": "16.3043", "texts": ["mio-x-bible-mixpn-v0.txt"], "code": "mio", "name": "Pinotepa Nacional Mixtec", "longitude": "-97.9966"}, {"latitude": "-0.01212", "texts": ["min-x-bible-minan-v0.txt"], "code": "min", "name": "Minangkabau", "longitude": "100.06787"}, {"latitude": "17.07133", "texts": ["mib-x-bible-mixat-v0.txt"], "code": "mib", "name": "Atatl\u00e1huca Mixtec", "longitude": "-97.67753"}, {"latitude": "17.18234", "texts": ["mie-x-bible-mixoc-v0.txt"], "code": "mie", "name": "Ocotepec Mixtec", "longitude": "-97.751"}, {"latitude": "23.88559", "texts": ["zom-x-bible-zokam-v0.txt"], "code": "zom", "name": "Zome", "longitude": "94.2114"}, {"latitude": "17.07765", "texts": ["mig-x-bible-mixsm-v0.txt"], "code": "mig", "name": "San Miguel el Grande Mixtec", "longitude": "-97.54318"}, {"latitude": "10.56704", "texts": ["mif-x-bible-mofug-v0.txt"], "code": "mif", "name": "Mofu-Gudur", "longitude": "14.03144"}, {"latitude": "55.14291", "texts": ["lit-x-bible-lithuanian-v0.txt"], "code": "lit", "name": "Lithuanian", "longitude": "23.96007"}, {"latitude": "18.12087", "texts": ["miz-x-bible-mixco-v0.txt"], "code": "miz", "name": "Coatzospan Mixtec", "longitude": "-96.65907"}, {"latitude": "4.61889", "texts": ["gkn-x-bible-gokan-v0.txt"], "code": "gkn", "name": "Gokana", "longitude": "7.34457"}, {"latitude": "16.94812", "texts": ["mir-x-bible-miisg-v0.txt"], "code": "mir", "name": "Isthmus Mixe", "longitude": "-95.06806"}, {"latitude": "8.68387", "texts": ["gym-x-bible-guaym-v0.txt"], "code": "gym", "name": "Ng\u00e4bere", "longitude": "-81.88204"}, {"latitude": "26.19603", "texts": ["kac-x-bible-kachin-v0.txt"], "code": "kac", "name": "Jingpho", "longitude": "96.91646"}, {"latitude": "36.41025", "texts": ["kab-x-bible-kabyle-v0.txt"], "code": "kab", "name": "Kabyle", "longitude": "4.76137"}, {"latitude": "43.29122", "texts": ["kaa-x-bible-karakalp-v0.txt"], "code": "kaa", "name": "Karakalpak", "longitude": "59.53703"}, {"latitude": "-6.16986", "texts": ["awx-x-bible-awara-v0.txt"], "code": "awx", "name": "Awara", "longitude": "146.37187"}, {"latitude": "14.18052", "texts": ["kao-x-bible-khassonk-v0.txt"], "code": "kao", "name": "Xaasongaxango", "longitude": "-10.66986"}, {"latitude": "13.58785", "texts": ["kan-x-bible-wtc-v0.txt"], "code": "kan", "name": "Kannada", "longitude": "76.11983"}, {"latitude": "4.9243", "texts": ["bss-x-bible-akoos-v0.txt"], "code": "bss", "name": "Akoose", "longitude": "9.65522"}, {"latitude": "-8.09387", "texts": ["knv-x-bible-dahl-v0.txt", "knv-x-bible-tabo-v0.txt", "knv-x-bible-taboaramia-v0.txt"], "code": "knv", "name": "Tabo", "longitude": "143.30513"}, {"latitude": "0.02193", "texts": ["bsn-x-bible-edura-v0.txt"], "code": "bsn", "name": "Barasana", "longitude": "-70.80803"}, {"latitude": "-4.30928", "texts": ["iws-x-bible-sepikiwam-v0.txt"], "code": "iws", "name": "Sepik Iwam", "longitude": "142.11683"}, {"latitude": "41.64311", "texts": ["kat-x-bible-georg-v0.txt"], "code": "kat", "name": "Georgian", "longitude": "44.13649"}, {"latitude": "43.95029", "texts": ["kaz-x-bible-kaz-v0.txt"], "code": "kaz", "name": "Kazakh", "longitude": "66.90226"}, {"latitude": "50.86222", "texts": ["tyv-x-bible-tuvin-v0.txt"], "code": "tyv", "name": "Tuvin", "longitude": "95.26872"}, {"latitude": "-6.65534", "texts": ["awb-x-bible-awa-v0.txt"], "code": "awb", "name": "Awa", "longitude": "145.71416"}, {"latitude": "24.88813", "texts": ["urd-x-bible-urdu-v0.txt"], "code": "urd", "name": "Urdu", "longitude": "67.05585"}, {"latitude": "-4.44006", "texts": ["ura-x-bible-urari-v0.txt"], "code": "ura", "name": "Urarina", "longitude": "-75.42107"}, {"latitude": "-10.2275", "texts": ["tpa-x-bible-taupo-v0.txt"], "code": "tpa", "name": "Taupota", "longitude": "150.37277"}, {"latitude": "-9.73317", "texts": ["pwg-x-bible-gapap-v0.txt"], "code": "pwg", "name": "Gapapaiwa", "longitude": "149.85373"}, {"latitude": "-9.63239", "texts": ["dob-x-bible-dobu-v0.txt"], "code": "dob", "name": "Dobu", "longitude": "150.82504"}, {"latitude": "10.16161", "texts": ["cko-x-bible-anufo-v0.txt"], "code": "cko", "name": "Anufo", "longitude": "0.28594"}, {"latitude": "16.21295", "texts": ["huv-x-bible-huavesanmateodm-v0.txt"], "code": "huv", "name": "San Mateo del Mar Huave", "longitude": "-95.00766"}, {"latitude": "-9.41971", "texts": ["tpi-x-bible-tokpi-v0.txt"], "code": "tpi", "name": "Tok Pisin", "longitude": "147.3031"}, {"latitude": "7.5258", "texts": ["urk-x-bible-urakl-v0.txt"], "code": "urk", "name": "Urak Lawoi'", "longitude": "99.07682"}, {"latitude": "9.39794", "texts": ["bzd-x-bible-bribr-v0.txt"], "code": "bzd", "name": "Bribri", "longitude": "-83.05395"}, {"latitude": "-38.28814", "texts": ["mri-x-bible-maori-v0.txt"], "code": "mri", "name": "Maori", "longitude": "176.54055"}, {"latitude": "9.40879", "texts": ["dop-x-bible-lokpa-v0.txt"], "code": "dop", "name": "Lukpa", "longitude": "1.99545"}, {"latitude": "-5.58358", "texts": ["tpz-x-bible-vasui-v0.txt"], "code": "tpz", "name": "Tinputz", "longitude": "154.97241"}, {"latitude": "-6.86672", "texts": ["bzh-x-bible-buang-v0.txt"], "code": "bzh", "name": "Mapos Buang", "longitude": "146.77413"}, {"latitude": "53.9092", "texts": ["ojs-x-bible-ojibw-v0.txt"], "code": "ojs", "name": "Severn Ojibwa", "longitude": "-89.93311"}, {"latitude": "-4.86563", "texts": ["szb-x-bible-ngalum-v0.txt"], "code": "szb", "name": "Ngalum", "longitude": "140.57094"}, {"latitude": "7.76747", "texts": ["neb-x-bible-toura-v0.txt"], "code": "neb", "name": "Toura", "longitude": "-7.33105"}, {"latitude": "-1.48025", "texts": ["pkb-x-bible-pokom-v0.txt"], "code": "pkb", "name": "Upper Pokomo", "longitude": "40.05028"}, {"latitude": "-4.26068", "texts": ["nlc-x-bible-nalca-v0.txt"], "code": "nlc", "name": "Nalca", "longitude": "139.88259"}, {"latitude": "20.18340", "texts": ["tku-x-bible-toton-v0.txt"], "code": "tku", "name": "Totonac, Upper Necaxa", "longitude": "-98.05606"}, {"latitude": "51.77029", "texts": ["nld-x-bible-dutch-v0.txt"], "code": "nld", "name": "Dutch", "longitude": "5.332"}, {"latitude": "30.28138", "texts": ["shi-x-bible-tache-v0.txt"], "code": "shi", "name": "Tachelhit", "longitude": "-8.18677"}, {"latitude": "-1.73938", "texts": ["wuv-x-bible-wuvul-v0.txt"], "code": "wuv", "name": "Wuvulu-Aua", "longitude": "142.85072"}, {"latitude": "6.14153", "texts": ["bfd-x-bible-bafut-v0.txt"], "code": "bfd", "name": "Bafut", "longitude": "10.11939"}, {"latitude": "-7.40618", "texts": ["jav-x-bible-javaneseindo-v0.txt"], "code": "jav", "name": "Javanese", "longitude": "111.07143"}, {"latitude": "43.51499", "texts": ["hrv-x-bible-croat-v0.txt"], "code": "hrv", "name": "Croatian", "longitude": "16.47117"}, {"latitude": "-7.95814", "texts": ["zia-x-bible-ziatu-v0.txt"], "code": "zia", "name": "Zia", "longitude": "147.57935"}, {"latitude": "17.85828", "texts": ["ngu-x-bible-nahgu-v0.txt"], "code": "ngu", "name": "Guerrero Nahuatl", "longitude": "-99.00233"}, {"latitude": "17.28877", "texts": ["zty-x-bible-zyate-v0.txt"], "code": "zty", "name": "Yatee Zapotec", "longitude": "-96.19804"}, {"latitude": "19.04129", "texts": ["tcw-x-bible-telug-v0.txt"], "code": "tcw", "name": "Totonac, Tecpatl\u00e1n", "longitude": "-98.20619"}, {"latitude": "9.07861", "texts": ["sus-x-bible-susu-v0.txt"], "code": "sus", "name": "Susu", "longitude": "-13.28891"}, {"latitude": "16.34158", "texts": ["ztq-x-bible-zquio-v0.txt"], "code": "ztq", "name": "Quioquitani-Quier\u00ed Zapotec", "longitude": "-96.15551"}, {"latitude": "15.66095", "texts": ["jac-x-bible-jacalteeaster-v0.txt"], "code": "jac", "name": "Eastern Jacalteco", "longitude": "-91.66327"}, {"latitude": "-0.76075", "texts": ["ycn-x-bible-yukun-v0.txt"], "code": "ycn", "name": "Yucuna", "longitude": "-71.00327"}, {"latitude": "-6.63254", "texts": ["kaq-x-bible-capanuh-v0.txt"], "code": "kaq", "name": "Capanahua", "longitude": "-74.38135"}, {"latitude": "10.1856", "texts": ["tbz-x-bible-ditam-v0.txt"], "code": "tbz", "name": "Ditammari", "longitude": "1.33444"}, {"latitude": "14.46743", "texts": ["kxm-x-bible-northernkhmer-v0.txt"], "code": "kxm", "name": "Northern Khmer", "longitude": "103.86313"}, {"latitude": "-0.16265", "texts": ["hix-x-bible-hixka-v0.txt"], "code": "hix", "name": "Hixkary\u00e1na", "longitude": "-58.80153"}, {"latitude": "10.77063", "texts": ["dyu-x-bible-jula-v0.txt"], "code": "dyu", "name": "Jula", "longitude": "-4.08665"}, {"latitude": "12.80851", "texts": ["dyo-x-bible-jolfo-v0.txt"], "code": "dyo", "name": "Jola-Fonyi", "longitude": "-16.20977"}, {"latitude": "-17.81477", "texts": ["hif-x-bible-fijih-v0.txt"], "code": "hif", "name": "Fijian Hindustani", "longitude": "177.77228"}, {"latitude": "10.64603", "texts": ["hig-x-bible-higgi-v0.txt"], "code": "hig", "name": "Kamwe", "longitude": "13.51362"}, {"latitude": "6.26618", "texts": ["gej-x-bible-mina-v0.txt"], "code": "gej", "name": "Gen", "longitude": "1.63969"}, {"latitude": "-4.69057", "texts": ["tbc-x-bible-takia-v0.txt"], "code": "tbc", "name": "Takia", "longitude": "145.97454"}, {"latitude": "10.40179", "texts": ["hil-x-bible-hilig-v0.txt"], "code": "hil", "name": "Hiligaynon", "longitude": "122.97428"}, {"latitude": "23.13376", "texts": ["hin-x-bible-hindinull-v0.txt"], "code": "hin", "name": "Hindi", "longitude": "79.78701"}, {"latitude": "6.11403", "texts": ["bav-x-bible-babun-v0.txt"], "code": "bav", "name": "Vengo", "longitude": "10.41372"}, {"latitude": "-3.42913", "texts": ["yad-x-bible-yagua-v0.txt"], "code": "yad", "name": "Yagua", "longitude": "-72.21864"}, {"latitude": "-5.29126", "texts": ["aey-x-bible-amele-v0.txt"], "code": "aey", "name": "Amele", "longitude": "145.68676"}, {"latitude": "5.17103", "texts": ["gbo-x-bible-gebon-v0.txt"], "code": "gbo", "name": "Northern Grebo", "longitude": "-8.1409"}, {"latitude": "54.37681", "texts": ["crx-x-bible-carri-v0.txt"], "code": "crx", "name": "Carrier", "longitude": "-124.32759"}, {"latitude": "-5.30044", "texts": ["agr-x-bible-aguar-v0.txt"], "code": "agr", "name": "Aguaruna", "longitude": "-77.92179"}, {"latitude": "-1.44105", "texts": ["emi-x-bible-musem-v0.txt"], "code": "emi", "name": "Mussau-Emira", "longitude": "149.62397"}, {"latitude": "2.31461", "texts": ["gbi-x-bible-galel-v0.txt"], "code": "gbi", "name": "Galela", "longitude": "128.44015"}, {"latitude": "7.63322", "texts": ["emp-x-bible-embno-v0.txt"], "code": "emp", "name": "Northern Ember\u00e1", "longitude": "-78.09685"}, {"latitude": "-8.35714", "texts": ["ban-x-bible-bali-v0.txt"], "code": "ban", "name": "Bali", "longitude": "115.07496"}, {"latitude": "0.21763", "texts": ["bao-x-bible-bora-v0.txt"], "code": "bao", "name": "Waimaha", "longitude": "-70.39047"}, {"latitude": "11.89483", "texts": ["bam-x-bible-bamba-v0.txt"], "code": "bam", "name": "Bamanankan", "longitude": "-6.76313"}, {"latitude": "22.40993", "texts": ["crn-x-bible-corpl-v0.txt"], "code": "crn", "name": "El Nayar Cora", "longitude": "-104.46744"}, {"latitude": "3.04372", "texts": ["bts-x-bible-batak-v0.txt"], "code": "bts", "name": "Batak Simalungun", "longitude": "98.90834"}, {"latitude": "-6.09974", "texts": ["bef-x-bible-benab-v0.txt"], "code": "bef", "name": "Benabena", "longitude": "145.53446"}, {"latitude": "30.76099", "texts": ["arz-x-bible-vdv-v0.txt"], "code": "arz", "name": "Egyptian Spoken Arabic", "longitude": "31.0735"}, {"latitude": "44.12793", "texts": ["rmy-x-bible-romvl-v0.txt"], "code": "rmy", "name": "Vlax Romani", "longitude": "25.76637"}, {"latitude": "2.12787", "texts": ["btx-x-bible-batakkaro-v0.txt"], "code": "btx", "name": "Batak Karo", "longitude": "98.25166"}, {"latitude": "2.51438", "texts": ["btd-x-bible-batakdairi-v0.txt"], "code": "btd", "name": "Batak Dairi", "longitude": "98.24269"}, {"latitude": "23.70631", "texts": ["arb-x-bible-arabi-v0.txt"], "code": "arb", "name": "Standard Arabic", "longitude": "40.79884"}, {"latitude": "13.38959", "texts": ["bto-x-bible-bataktob-v0.txt"], "code": "bto", "name": "Iriga Bicolano", "longitude": "123.3307"}, {"latitude": "-1.96126", "texts": ["arl-x-bible-arabe-v0.txt"], "code": "arl", "name": "Arabela", "longitude": "-75.06117"}, {"latitude": "-38.43638", "texts": ["arn-x-bible-mapud-v0.txt"], "code": "arn", "name": "Mapudungun", "longitude": "-72.18261"}, {"latitude": "13.38103", "texts": ["iry-x-bible-iraya-v0.txt"], "code": "iry", "name": "Iraya", "longitude": "120.64995"}, {"latitude": "8.15211", "texts": ["ncu-x-bible-chumb-v0.txt"], "code": "ncu", "name": "Chumburung", "longitude": "-0.2755"}, {"latitude": "6.61329", "texts": ["mur-x-bible-murle-v0.txt"], "code": "mur", "name": "Murle", "longitude": "32.5272"}, {"latitude": "-13.39249", "texts": ["tna-x-bible-tacan-v0.txt"], "code": "tna", "name": "Tacana", "longitude": "-68.04056"}, {"latitude": "-5.8626", "texts": ["mux-x-bible-boung-v0.txt"], "code": "mux", "name": "Mbo-Ung", "longitude": "144.08649"}, {"latitude": "-4.4131", "texts": ["tcc-x-bible-datoo-v0.txt"], "code": "tcc", "name": "Datooga", "longitude": "35.23207"}, {"latitude": "15.43737", "texts": ["wol-x-bible-wolof-v0.txt"], "code": "wol", "name": "Wolof", "longitude": "-16.20793"}, {"latitude": "-4.19948", "texts": ["irk-x-bible-kiraqw-v0.txt"], "code": "irk", "name": "Iraqw", "longitude": "35.29393"}, {"latitude": "4.24165", "texts": ["muh-x-bible-mundu-v0.txt"], "code": "muh", "name": "M\u00fcnd\u00fc", "longitude": "30.22842"}, {"latitude": "7.40391", "texts": ["wob-x-bible-wenor-v0.txt"], "code": "wob", "name": "W\u00e8 Northern", "longitude": "-7.24617"}, {"latitude": "20.70402", "texts": ["tpt-x-bible-tepeh-v0.txt"], "code": "tpt", "name": "Tlachichilco Tepehua", "longitude": "-98.19468"}, {"latitude": "5.58288", "texts": ["ken-x-bible-kenyang-v0.txt"], "code": "ken", "name": "Kenyang", "longitude": "9.55918"}, {"latitude": "3.25933", "texts": ["ozm-x-bible-koonz-v0.txt"], "code": "ozm", "name": "Koonzime", "longitude": "13.54152"}, {"latitude": "15.95051", "texts": ["kek-x-bible-kekchi-v0.txt", "kek-x-bible-kekchicatholic-v0.txt"], "code": "kek", "name": "Kekch\u00ed", "longitude": "-89.76169"}, {"latitude": "36.72344", "texts": ["tur-x-bible-turknull-v0.txt", "tur-x-bible-turnt-v0.txt"], "code": "tur", "name": "Turkish", "longitude": "34.90639"}, {"latitude": "24.58243", "texts": ["hak-x-bible-chinhakk-v0.txt"], "code": "hak", "name": "Hakka Chinese", "longitude": "114.99321"}, {"latitude": "-6.35337", "texts": ["omw-x-bible-omwun-v0.txt"], "code": "omw", "name": "South Tairora", "longitude": "145.88287"}, {"latitude": "6.70286", "texts": ["kez-x-bible-kukele-v0.txt"], "code": "kez", "name": "Kukele", "longitude": "8.39343"}, {"latitude": "0.52993", "texts": ["tuo-x-bible-tucan-v0.txt"], "code": "tuo", "name": "Tucano", "longitude": "-69.20065"}, {"latitude": "-6.32097", "texts": ["kew-x-bible-westkewa-v0.txt"], "code": "kew", "name": "West Kewa", "longitude": "143.72984"}, {"latitude": "0.51905", "texts": ["tue-x-bible-tuyuc-v0.txt"], "code": "tue", "name": "Tuyuca", "longitude": "-70.11861"}, {"latitude": "6.66535", "texts": ["tuf-x-bible-tuneb-v0.txt"], "code": "tuf", "name": "Central Tunebo", "longitude": "-72.23365"}, {"latitude": "-6.11618", "texts": ["etr-x-bible-edolo-v0.txt"], "code": "etr", "name": "Edolo", "longitude": "142.65007"}, {"latitude": "29.47203", "texts": ["cop-x-bible-copbo-v0.txt", "cop-x-bible-copsa-v0.txt", "cop-x-bible-copti-v0.txt"], "code": "cop", "name": "Coptic", "longitude": "31.2053"}, {"latitude": "-11.48125", "texts": ["cot-x-bible-caqui-v0.txt"], "code": "cot", "name": "Caquinte", "longitude": "-73.44506"}, {"latitude": "-9.34361", "texts": ["viv-x-bible-iduna-v0.txt"], "code": "viv", "name": "Iduna", "longitude": "150.24037"}, {"latitude": "-3.42531", "texts": ["vun-x-bible-kivunj-v0.txt"], "code": "vun", "name": "Vunjo", "longitude": "37.58474"}, {"latitude": "15.93614", "texts": ["ilo-x-bible-ilokano-v0.txt"], "code": "ilo", "name": "Ilocano", "longitude": "120.99329"}, {"latitude": "-10.12464", "texts": ["wed-x-bible-topur-v0.txt", "wed-x-bible-wedau-v0.txt"], "code": "wed", "name": "Wedau", "longitude": "150.17188"}, {"latitude": "67.63566", "texts": ["gwi-x-bible-gwich-v0.txt"], "code": "gwi", "name": "Gwich'in", "longitude": "-139.80541"}, {"latitude": "-6.32989", "texts": ["kjs-x-bible-eastkewa-v0.txt"], "code": "kjs", "name": "East Kewa", "longitude": "143.93088"}, {"latitude": "0.92316", "texts": ["coe-x-bible-koreg-v0.txt"], "code": "coe", "name": "Koreguaje", "longitude": "-75.34745"}, {"latitude": "-5.07444", "texts": ["tlf-x-bible-telef-v0.txt"], "code": "tlf", "name": "Telefol", "longitude": "141.73053"}, {"latitude": "-0.21181", "texts": ["cof-x-bible-color-v0.txt"], "code": "cof", "name": "Colorado", "longitude": "-79.23468"}, {"latitude": "22.71018", "texts": ["cok-x-bible-cora-v0.txt"], "code": "cok", "name": "Santa Teresa Cora", "longitude": "-104.70003"}, {"latitude": "0.14687", "texts": ["con-x-bible-cofan-v0.txt"], "code": "con", "name": "Cof\u00e1n", "longitude": "-77.06144"}, {"latitude": "-15.56432", "texts": ["tgp-x-bible-tangoa-v0.txt"], "code": "tgp", "name": "Tangoa", "longitude": "166.95814"}, {"latitude": "-10.5522", "texts": ["hvn-x-bible-hawu-v0.txt"], "code": "hvn", "name": "Sabu", "longitude": "121.84682"}, {"latitude": "1.31564", "texts": ["kwi-x-bible-awacuaiquer-v0.txt"], "code": "kwi", "name": "Awa-Cuaiquer", "longitude": "-78.19321"}, {"latitude": "39.36358", "texts": ["pot-x-bible-potaw-v0.txt"], "code": "pot", "name": "Potawatomi", "longitude": "-95.82722"}, {"latitude": "-3.74263", "texts": ["kwj-x-bible-kwanga-v0.txt"], "code": "kwj", "name": "Kwanga", "longitude": "142.71051"}, {"latitude": "39.44108", "texts": ["por-x-bible-poraa-v0.txt", "por-x-bible-porac-v0.txt", "por-x-bible-porbt-v0.txt", "por-x-bible-porlh-v0.txt"], "code": "por", "name": "Portuguese", "longitude": "-7.83932"}, {"latitude": "51.87823", "texts": ["pol-x-bible-polishnull-v0.txt"], "code": "pol", "name": "Polish", "longitude": "19.13688"}, {"latitude": "15.29204", "texts": ["poh-x-bible-pokoe-v0.txt", "poh-x-bible-poqow-v0.txt"], "code": "poh", "name": "Eastern Pokomch\u00ed", "longitude": "-90.19328"}, {"latitude": "18.19804", "texts": ["poi-x-bible-popol-v0.txt"], "code": "poi", "name": "Highland Popoluca", "longitude": "-94.91088"}, {"latitude": "9.33929", "texts": ["hag-x-bible-hanga-v0.txt"], "code": "hag", "name": "Hanga", "longitude": "-1.57833"}, {"latitude": "14.06", "texts": ["tgl-x-bible-tagal-v0.txt", "tgl-x-bible-tgalo-v0.txt"], "code": "tgl", "name": "Tagalog", "longitude": "121.74695"}, {"latitude": "-6.3374", "texts": ["swh-x-bible-swahi-v0.txt"], "code": "swh", "name": "Swahili", "longitude": "39.3822"}, {"latitude": "46.77921", "texts": ["fra-x-bible-freda-v0.txt", "fra-x-bible-frels-v0.txt", "fra-x-bible-frema-v0.txt", "fra-x-bible-freos-v0.txt", "fra-x-bible-frepa-v0.txt"], "code": "fra", "name": "French", "longitude": "1.71931"}, {"latitude": "16.49197", "texts": ["zpz-x-bible-ztexm-v0.txt"], "code": "zpz", "name": "Texmelucan Zapotec", "longitude": "-97.08947"}, {"latitude": "-7.71834", "texts": ["wer-x-bible-weri-v0.txt"], "code": "wer", "name": "Weri", "longitude": "146.91368"}, {"latitude": "17.20157", "texts": ["zpq-x-bible-zzoog-v0.txt"], "code": "zpq", "name": "Zoogocho Zapotec", "longitude": "-96.34326"}, {"latitude": "59.00805", "texts": ["swe-x-bible-swebsv-v0.txt", "swe-x-bible-swedi-v0.txt", "swe-x-bible-swedisfb-v0.txt", "swe-x-bible-sweneun-v0.txt", "swe-x-bible-swezwei-v0.txt"], "code": "swe", "name": "Swedish", "longitude": "17.615"}, {"latitude": "-9.46246", "texts": ["bbb-x-bible-barai-v0.txt"], "code": "bbb", "name": "Barai", "longitude": "147.89923"}, {"latitude": "9.94229", "texts": ["bba-x-bible-barib-v0.txt"], "code": "bba", "name": "Baatonum", "longitude": "2.68751"}, {"latitude": "-4.09629", "texts": ["dug-x-bible-durum-v0.txt"], "code": "dug", "name": "Duruma", "longitude": "39.32203"}, {"latitude": "6.46497", "texts": ["yam-x-bible-yamba-v0.txt"], "code": "yam", "name": "Yamba", "longitude": "11.04281"}, {"latitude": "10.14516", "texts": ["yal-x-bible-yalun-v0.txt"], "code": "yal", "name": "Yalunka", "longitude": "-11.10246"}, {"latitude": "46.75922", "texts": ["xal-x-bible-kalmy-v0.txt"], "code": "xal", "name": "Kalmyk-Oirat", "longitude": "45.42443"}, {"latitude": "17.15414", "texts": ["trc-x-bible-triqc-v0.txt"], "code": "trc", "name": "Copala Triqui", "longitude": "-97.98262"}, {"latitude": "16.27069", "texts": ["zpo-x-bible-zamat-v0.txt"], "code": "zpo", "name": "Amatl\u00e1n Zapotec", "longitude": "-96.40033"}, {"latitude": "-10.66062", "texts": ["swp-x-bible-suau-v0.txt"], "code": "swp", "name": "Suau", "longitude": "150.20977"}, {"latitude": "17.4371", "texts": ["zpc-x-bible-zchoa-v0.txt"], "code": "zpc", "name": "Choapan Zapotec", "longitude": "-95.86562"}, {"latitude": "20.1356", "texts": ["ncj-x-bible-nahnp-v0.txt"], "code": "ncj", "name": "Northern Puebla Nahuatl", "longitude": "-97.98141"}, {"latitude": "-5.35342", "texts": ["bbr-x-bible-giraw-v0.txt"], "code": "bbr", "name": "Girawa", "longitude": "145.42332"}, {"latitude": "-3.277", "texts": ["wrs-x-bible-waris-v0.txt"], "code": "wrs", "name": "Waris", "longitude": "141.10645"}, {"latitude": "16.94037", "texts": ["mco-x-bible-coatlan-v0.txt"], "code": "mco", "name": "Coatl\u00e1n Mixe", "longitude": "-95.46586"}, {"latitude": "15.68455", "texts": ["kjb-x-bible-easternkanjobal-v0.txt"], "code": "kjb", "name": "Eastern Kanjobal", "longitude": "-91.3043"}, {"latitude": "20.59906", "texts": ["otm-x-bible-otomh-v0.txt"], "code": "otm", "name": "Eastern Highland Otomi", "longitude": "-98.09783"}, {"latitude": "20.42623", "texts": ["otn-x-bible-otomt-v0.txt"], "code": "otn", "name": "Tenango Otomi", "longitude": "-98.17509"}, {"latitude": "-5.06952", "texts": ["gaw-x-bible-nobon-v0.txt"], "code": "gaw", "name": "Nobonob", "longitude": "145.71224"}, {"latitude": "-10.011", "texts": ["bmk-x-bible-ghaya-v0.txt"], "code": "bmk", "name": "Ghayavi", "longitude": "149.84038"}, {"latitude": "-5.3373", "texts": ["bmh-x-bible-kein-v0.txt"], "code": "bmh", "name": "Kein", "longitude": "145.48294"}, {"latitude": "-12.12905", "texts": ["mcb-x-bible-matsigenka-v0.txt"], "code": "mcb", "name": "Machiguenga", "longitude": "-72.50171"}, {"latitude": "-0.8652", "texts": ["bmr-x-bible-wyc-v0.txt"], "code": "bmr", "name": "Muinane", "longitude": "-72.42495"}, {"latitude": "-9.33333", "texts": ["hmo-x-bible-bukhe-v0.txt"], "code": "hmo", "name": "Hiri Motu", "longitude": "147.08332"}, {"latitude": "3.48871", "texts": ["sxn-x-bible-sangi-v0.txt", "sxn-x-bible-sanginull-v0.txt"], "code": "sxn", "name": "Sangir", "longitude": "125.73408"}, {"latitude": "-6.03901", "texts": ["gah-x-bible-alekg-v0.txt"], "code": "gah", "name": "Alekano", "longitude": "145.38723"}, {"latitude": "46.10561", "texts": ["gag-x-bible-gagal-v0.txt"], "code": "gag", "name": "Gagauz", "longitude": "28.72994"}, {"latitude": "58.595272", "texts": ["ekk-x-bible-eston-v0.txt"], "code": "ekk", "name": "Standard Estonian", "longitude": "25.013607"}, {"latitude": "6.43829", "texts": ["mcu-x-bible-mambilacameroon-v0.txt"], "code": "mcu", "name": "Cameroon Mambila", "longitude": "11.41953"}, {"latitude": "-9.09451", "texts": ["mcq-x-bible-esemanagalasi-v0.txt"], "code": "mcq", "name": "Ese", "longitude": "148.37594"}, {"latitude": "10.99725", "texts": ["fuv-x-bible-funic-v0.txt"], "code": "fuv", "name": "Nigerian Fulfulde", "longitude": "11.11882"}, {"latitude": "-4.4376", "texts": ["sny-x-bible-sanhi-v0.txt"], "code": "sny", "name": "Saniyo-Hiyewe", "longitude": "142.36939"}, {"latitude": "-20.28192", "texts": ["gnw-x-bible-guarw-v0.txt"], "code": "gnw", "name": "Western Bolivian Guaran\u00ed", "longitude": "-64.16621"}, {"latitude": "1.1972", "texts": ["bng-x-bible-benga-v0.txt", "bng-x-bible-bengb-v0.txt", "bng-x-bible-bengc-v0.txt"], "code": "bng", "name": "Benga", "longitude": "9.4273"}, {"latitude": "-6.59318", "texts": ["mlh-x-bible-mape-v0.txt"], "code": "mlh", "name": "Mape", "longitude": "147.6816"}, {"latitude": "11.91098", "texts": ["hau-x-bible-hausnull-v0.txt"], "code": "hau", "name": "Hausa", "longitude": "7.18939"}, {"latitude": "-6.26519", "texts": ["sll-x-bible-salty-v0.txt"], "code": "sll", "name": "Salt-Yui", "longitude": "145.02097"}, {"latitude": "-4.8723", "texts": ["mlp-x-bible-barga-v0.txt"], "code": "mlp", "name": "Bargam", "longitude": "145.75577"}, {"latitude": "6.83331", "texts": ["fub-x-bible-fulfuldadam-v0.txt"], "code": "fub", "name": "Adamawa Fulfulde", "longitude": "12.82538"}, {"latitude": "10.82696", "texts": ["gnd-x-bible-zulgo-v0.txt"], "code": "gnd", "name": "Zulgo-Gemzek", "longitude": "14.05779"}, {"latitude": "11.0916", "texts": ["sld-x-bible-sissa-v0.txt"], "code": "sld", "name": "Sissala", "longitude": "-2.38217"}, {"latitude": "-10.24414", "texts": ["aia-x-bible-arosi-v0.txt"], "code": "aia", "name": "Arosi", "longitude": "161.43153"}, {"latitude": "10.77883", "texts": ["mqb-x-bible-mbuko-v0.txt"], "code": "mqb", "name": "Mbuko", "longitude": "14.16766"}, {"latitude": "35.35084", "texts": ["jpn-x-bible-japanesecollo-v0.txt"], "code": "jpn", "name": "Japanese", "longitude": "136.46904"}, {"latitude": "-3.53277", "texts": ["avt-x-bible-au-v0.txt"], "code": "avt", "name": "Au", "longitude": "142.1046"}, {"latitude": "4.82505", "texts": ["avu-x-bible-avoka-v0.txt"], "code": "avu", "name": "Avokaya", "longitude": "29.99855"}, {"latitude": "20.29805", "texts": ["mya-x-bible-myanm-v0.txt"], "code": "mya", "name": "Burmese", "longitude": "95.78856"}, {"latitude": "-9.57457", "texts": ["mox-x-bible-molim-v0.txt"], "code": "mox", "name": "Molima", "longitude": "150.61417"}, {"latitude": "14.63507", "texts": ["tzj-x-bible-tzuea-v0.txt", "tzj-x-bible-tzuwe-v0.txt"], "code": "tzj", "name": "Eastern Tzutujil", "longitude": "-91.20122"}, {"latitude": "42.42226", "texts": ["ava-x-bible-avar-v0.txt"], "code": "ava", "name": "Avar", "longitude": "46.56284"}, {"latitude": "16.26588", "texts": ["tzo-x-bible-tzcha-v0.txt", "tzo-x-bible-tzcho-v0.txt", "tzo-x-bible-tzhui-v0.txt", "tzo-x-bible-tzzin-v0.txt"], "code": "tzo", "name": "Venustiano Carranza Tzotzil", "longitude": "-92.59968"}, {"latitude": "12.15165", "texts": ["daa-x-bible-danga-v0.txt"], "code": "daa", "name": "Dangal\u00e9at", "longitude": "18.38502"}, {"latitude": "-10.75832", "texts": ["cjo-x-bible-ashpa-v0.txt"], "code": "cjo", "name": "Ash\u00e9ninka Pajonal", "longitude": "-74.2014"}, {"latitude": "1.0946", "texts": ["tlb-x-bible-tobel-v0.txt"], "code": "tlb", "name": "Tobelo", "longitude": "128.15361"}, {"latitude": "27.84032", "texts": ["yaq-x-bible-yaqui-v0.txt"], "code": "yaq", "name": "Yaqui", "longitude": "-110.2979"}, {"latitude": "-9.38709", "texts": ["qwh-x-bible-queha-v0.txt"], "code": "qwh", "name": "Huaylas Ancash Quechua", "longitude": "-77.77681"}, {"latitude": "-9.45005", "texts": ["yml-x-bible-yamal-v0.txt"], "code": "yml", "name": "Iamalele", "longitude": "150.57308"}, {"latitude": "6.14219", "texts": ["ewe-x-bible-ewe-v0.txt"], "code": "ewe", "name": "\u00c9w\u00e9", "longitude": "0.63453"}, {"latitude": "-14.59295", "texts": ["pab-x-bible-parec-v0.txt"], "code": "pab", "name": "Parec\u00eds", "longitude": "-57.40595"}, {"latitude": "-5.78403", "texts": ["pad-x-bible-pauma-v0.txt"], "code": "pad", "name": "Paumar\u00ed", "longitude": "-64.28035"}, {"latitude": "15.93774", "texts": ["pag-x-bible-panga-v0.txt"], "code": "pag", "name": "Pangasinan", "longitude": "120.36519"}, {"latitude": "-7.92626", "texts": ["pah-x-bible-tenha-v0.txt"], "code": "pah", "name": "Tenharim", "longitude": "-61.93599"}, {"latitude": "9.67031", "texts": ["cjp-x-bible-cabec-v0.txt"], "code": "cjp", "name": "Cab\u00e9car", "longitude": "-83.41016"}, {"latitude": "-6.17824", "texts": ["cjv-x-bible-chuav-v0.txt"], "code": "cjv", "name": "Chuave", "longitude": "145.13949"}, {"latitude": "16.22794", "texts": ["mxt-x-bible-jamiltepec-v0.txt"], "code": "mxt", "name": "Jamiltepec Mixtec", "longitude": "-97.84167"}, {"latitude": "30.86767", "texts": ["pan-x-bible-punja-v0.txt"], "code": "pan", "name": "Eastern Panjabi", "longitude": "75.06356"}, {"latitude": "9.15686", "texts": ["cuk-x-bible-cunasanb-v0.txt"], "code": "cuk", "name": "San Blas Kuna", "longitude": "-78.3075"}, {"latitude": "-1.60606", "texts": ["nij-x-bible-ngaju-v0.txt"], "code": "nij", "name": "Ngaju", "longitude": "114.2784"}, {"latitude": "8.11489", "texts": ["mzw-x-bible-deg-v0.txt"], "code": "mzw", "name": "Deg", "longitude": "-1.93463"}, {"latitude": "-4.50002", "texts": ["nim-x-bible-kinyi-v0.txt"], "code": "nim", "name": "Nilamba", "longitude": "34.30675"}, {"latitude": "-10.54539", "texts": ["ame-x-bible-yanes-v0.txt"], "code": "ame", "name": "Yanesha'", "longitude": "-75.31497"}, {"latitude": "-6.29221", "texts": ["iou-x-bible-tumairumu-v0.txt"], "code": "iou", "name": "Tuma-Irumu", "longitude": "146.60922"}, {"latitude": "11.04408", "texts": ["dgi-x-bible-dagno-v0.txt"], "code": "dgi", "name": "Northern Dagara", "longitude": "-3.0124"}, {"latitude": "-6.37697", "texts": ["nif-x-bible-nef-v0.txt"], "code": "nif", "name": "Nek", "longitude": "146.84135"}, {"latitude": "-9.47132", "texts": ["mzz-x-bible-maiad-v0.txt"], "code": "mzz", "name": "Maiadomu", "longitude": "150.75989"}, {"latitude": "-6.9582", "texts": ["qvs-x-bible-quesm-v0.txt"], "code": "qvs", "name": "San Mart\u00edn Quechua", "longitude": "-76.6608"}, {"latitude": "5.24162", "texts": ["guh-x-bible-guahi-v0.txt"], "code": "guh", "name": "Guahibo", "longitude": "-69.72268"}, {"latitude": "-2.40029", "texts": ["boa-x-bible-bora-v0.txt"], "code": "boa", "name": "Bora", "longitude": "-71.79863"}, {"latitude": "-9.9747", "texts": ["dgz-x-bible-daga-v0.txt"], "code": "dgz", "name": "Daga", "longitude": "149.26296"}, {"latitude": "8.90347", "texts": ["mzm-x-bible-mumuy-v0.txt"], "code": "mzm", "name": "Mumuye", "longitude": "11.71545"}, {"latitude": "-5.83155", "texts": ["rwo-x-bible-rawa-v0.txt", "rwo-x-bible-rawka-v0.txt"], "code": "rwo", "name": "Rawa", "longitude": "145.93659"}, {"latitude": "17.06713", "texts": ["mil-x-bible-mixpe-v0.txt"], "code": "mil", "name": "Pe\u00f1oles Mixtec", "longitude": "-97.01013"}, {"latitude": "8.67039", "texts": ["kno-x-bible-kono-v0.txt"], "code": "kno", "name": "Kono", "longitude": "-10.92143"}, {"latitude": "6.86367", "texts": ["jbu-x-bible-junkun-v0.txt"], "code": "jbu", "name": "Jukun Takum", "longitude": "10.50812"}, {"latitude": "15.66007", "texts": ["knj-x-bible-acateco-v0.txt"], "code": "knj", "name": "Western Kanjobal", "longitude": "-91.60773"}, {"latitude": "9.38995", "texts": ["knk-x-bible-kuranko-v0.txt"], "code": "knk", "name": "Kuranko", "longitude": "-11.15474"}, {"latitude": "-5.26758", "texts": ["kng-x-bible-koongo-v0.txt"], "code": "kng", "name": "Koongo", "longitude": "14.39675"}, {"latitude": "49.32733", "texts": ["epo-x-bible-esper-v0.txt"], "code": "epo", "name": "Esperanto", "longitude": "2.81045"}, {"latitude": "17.59088", "texts": ["cco-x-bible-china-v0.txt"], "code": "cco", "name": "Comaltepec Chinantec", "longitude": "-96.44501"}, {"latitude": "-0.13221", "texts": ["thk-x-bible-thara-v0.txt"], "code": "thk", "name": "Tharaka", "longitude": "38.07303"}, {"latitude": "54.26037", "texts": ["glv-x-bible-manxg-v0.txt"], "code": "glv", "name": "Manx", "longitude": "-4.45437"}, {"latitude": "-24.83273", "texts": ["cce-x-bible-txitx-v0.txt"], "code": "cce", "name": "Chopi", "longitude": "34.10973"}, {"latitude": "-6.38204", "texts": ["kki-x-bible-kikagulu-v0.txt"], "code": "kki", "name": "Kagulu", "longitude": "37.05341"}, {"latitude": "-1.03033", "texts": ["lew-x-bible-kaile-v0.txt"], "code": "lew", "name": "Ledo Kaili", "longitude": "120.13229"}, {"latitude": "-8.75779", "texts": ["kwf-x-bible-kwara-v0.txt"], "code": "kwf", "name": "Kwara'ae", "longitude": "160.80403"}, {"latitude": "-8.79741", "texts": ["gdr-x-bible-wipi-v0.txt"], "code": "gdr", "name": "Wipi", "longitude": "143.06403"}, {"latitude": "10.92842", "texts": ["mfh-x-bible-matal-v0.txt"], "code": "mfh", "name": "Matal", "longitude": "14.04736"}, {"latitude": "11.09635", "texts": ["mfi-x-bible-mandara-v0.txt"], "code": "mfi", "name": "Wandala", "longitude": "14.11681"}, {"latitude": "-4.19722", "texts": ["ldi-x-bible-laari-v0.txt"], "code": "ldi", "name": "Laari", "longitude": "14.57752"}, {"latitude": "10.75515", "texts": ["mfq-x-bible-moba-v0.txt"], "code": "mfq", "name": "Moba", "longitude": "0.1327"}, {"latitude": "-3.99078", "texts": ["sgz-x-bible-sursu-v0.txt"], "code": "sgz", "name": "Sursurunga", "longitude": "152.76834"}, {"latitude": "10.35013", "texts": ["gde-x-bible-gude-v0.txt"], "code": "gde", "name": "Gude", "longitude": "13.40591"}, {"latitude": "-5.20797", "texts": ["opm-x-bible-oksap-v0.txt"], "code": "opm", "name": "Oksapmin", "longitude": "142.17666"}, {"latitude": "9.81455", "texts": ["mfz-x-bible-mabaan-v0.txt"], "code": "mfz", "name": "Mabaan", "longitude": "33.54035"}, {"latitude": "10.49875", "texts": ["xrb-x-bible-karab-v0.txt"], "code": "xrb", "name": "Eastern Karaboro", "longitude": "-4.52253"}, {"latitude": "49.38788", "texts": ["swg-x-bible-swabi-v0.txt"], "code": "swg", "name": "Swabian", "longitude": "7.12775"}, {"latitude": "-9.89671", "texts": ["gdn-x-bible-umana-v0.txt"], "code": "gdn", "name": "Umanakaina", "longitude": "149.65773"}, {"latitude": "-3.26422", "texts": ["tca-x-bible-ticun-v0.txt"], "code": "tca", "name": "Ticuna", "longitude": "-68.59012"}, {"latitude": "17.90286", "texts": ["cut-x-bible-cuiteteu-v0.txt"], "code": "cut", "name": "Teutila Cuicatec", "longitude": "-96.66452"}, {"latitude": "37.46921", "texts": ["ell-x-bible-greekfiloswb-v0.txt", "ell-x-bible-greeklogoswb-v0.txt", "ell-x-bible-greekmetagl-v0.txt", "ell-x-bible-gremo-v0.txt"], "code": "ell", "name": "Greek", "longitude": "23.32509"}, {"latitude": "-6.06875", "texts": ["tim-x-bible-timbe-v0.txt"], "code": "tim", "name": "Timbe", "longitude": "147.05718"}, {"latitude": "0.64616", "texts": ["mog-x-bible-mongo-v0.txt"], "code": "mog", "name": "Mongondow", "longitude": "124.11368"}, {"latitude": "-5.55792", "texts": ["bnp-x-bible-bola-v0.txt"], "code": "bnp", "name": "Bola", "longitude": "150.09488"}, {"latitude": "17.75598", "texts": ["cux-x-bible-cuitetep-v0.txt"], "code": "cux", "name": "Tepeuxila Cuicatec", "longitude": "-96.78797"}, {"latitude": "-1.70878", "texts": ["hay-x-bible-ruhay-v0.txt"], "code": "hay", "name": "Haya", "longitude": "31.4846"}, {"latitude": "8.19117", "texts": ["ade-x-bible-adele-v0.txt"], "code": "ade", "name": "Adele", "longitude": "0.73376"}, {"latitude": "17.9184", "texts": ["cuc-x-bible-chius-v0.txt"], "code": "cuc", "name": "Usila Chinantec", "longitude": "-96.40743"}, {"latitude": "1.38651", "texts": ["cub-x-bible-cubeo-v0.txt"], "code": "cub", "name": "Cubeo", "longitude": "-70.65322"}, {"latitude": "5.38228", "texts": ["adj-x-bible-adiou-v0.txt"], "code": "adj", "name": "Adioukrou", "longitude": "-4.52522"}, {"latitude": "6.36090", "texts": ["gmv-x-bible-gamo-v0.txt"], "code": "gmv", "name": "Gamo", "longitude": "37.12585"}, {"latitude": "6.15685", "texts": ["cui-x-bible-cuiba-v0.txt"], "code": "cui", "name": "Cuiba", "longitude": "-70.19663"}, {"latitude": "19.62965", "texts": ["haw-x-bible-hawaneunzehn-v0.txt"], "code": "haw", "name": "Hawaiian", "longitude": "-155.42995"}, {"latitude": "11.77861", "texts": ["amh-x-bible-amhar-v0.txt"], "code": "amh", "name": "Amharic", "longitude": "37.93657"}, {"latitude": "10.45746", "texts": ["bim-x-bible-bimob-v0.txt"], "code": "bim", "name": "Bimoba", "longitude": "0.06121"}, {"latitude": "-4.20192", "texts": ["amm-x-bible-ama-v0.txt"], "code": "amm", "name": "Ama", "longitude": "141.65793"}, {"latitude": "-3.51516", "texts": ["amn-x-bible-amana-v0.txt"], "code": "amn", "name": "Amanab", "longitude": "141.17783"}, {"latitude": "12.68095", "texts": ["mos-x-bible-mooca-v0.txt", "mos-x-bible-moopr-v0.txt"], "code": "mos", "name": "M\u00f2or\u00e9", "longitude": "-1.11308"}, {"latitude": "-7.33882", "texts": ["big-x-bible-biang-v0.txt"], "code": "big", "name": "Biangai", "longitude": "146.76483"}, {"latitude": "16.54892", "texts": ["mop-x-bible-maymo-v0.txt"], "code": "mop", "name": "Mop\u00e1n Maya", "longitude": "-88.73116"}, {"latitude": "11.45787", "texts": ["bib-x-bible-bissa-v0.txt"], "code": "bib", "name": "Bissa", "longitude": "-0.46336"}, {"latitude": "-3.97488", "texts": ["pse-x-bible-dahl-v0.txt"], "code": "pse", "name": "Pasemah", "longitude": "103.3625"}, {"latitude": "9.27512", "texts": ["biv-x-bible-birif-v0.txt"], "code": "biv", "name": "Southern Birifor", "longitude": "-2.61071"}, {"latitude": "-4.66307", "texts": ["amp-x-bible-alamb-v0.txt"], "code": "amp", "name": "Alamblak", "longitude": "143.31576"}, {"latitude": "-9.18089", "texts": ["nvm-x-bible-namia-v0.txt"], "code": "nvm", "name": "Namiae", "longitude": "148.16643"}, {"latitude": "-12.49308", "texts": ["amr-x-bible-amara-v0.txt"], "code": "amr", "name": "Amarakaeri", "longitude": "-70.55333"}, {"latitude": "16.77226", "texts": ["amu-x-bible-amuzg-v0.txt"], "code": "amu", "name": "Guerrero Amuzgo", "longitude": "-98.18953"}, {"latitude": "-17.7209", "texts": ["bis-x-bible-bisla-v0.txt"], "code": "bis", "name": "Bislama", "longitude": "168.29681"}, {"latitude": "-4.52416", "texts": ["mhl-x-bible-mauwake-v0.txt"], "code": "mhl", "name": "Mauwake", "longitude": "145.39391"}, {"latitude": "4.21048", "texts": ["zlm-x-bible-dahl-v0.txt", "zlm-x-bible-malay-v0.txt"], "code": "zlm", "name": "Malay", "longitude": "101.97576"}, {"latitude": "-9.85887", "texts": ["qxh-x-bible-quepa-v0.txt"], "code": "qxh", "name": "Panao Hu\u00e1nuco Quechua", "longitude": "-75.4382"}, {"latitude": "-8.97356", "texts": ["qxn-x-bible-queno-v0.txt"], "code": "qxn", "name": "Northern Conchucos Ancash Quechua", "longitude": "-77.41462"}, {"latitude": "-9.30995", "texts": ["qxo-x-bible-queso-v0.txt"], "code": "qxo", "name": "Southern Conchucos Ancash Quechua", "longitude": "-76.98537"}, {"latitude": "18.21229", "texts": ["mit-x-bible-mixsp-v0.txt"], "code": "mit", "name": "Southern Puebla Mixtec", "longitude": "-97.95722"}, {"latitude": "6.03691", "texts": ["bps-x-bible-korbl-v0.txt"], "code": "bps", "name": "Sarangani Blaan", "longitude": "125.35373"}, {"latitude": "6.20529", "texts": ["bpr-x-bible-blaan-v0.txt"], "code": "bpr", "name": "Koronadal Blaan", "longitude": "125.00664"}, {"latitude": "-11.37963", "texts": ["yle-x-bible-yelro-v0.txt"], "code": "yle", "name": "Yele", "longitude": "154.12664"}, {"latitude": "25.84682", "texts": ["mhx-x-bible-lhaov-v0.txt"], "code": "mhx", "name": "Maru", "longitude": "98.34711"}, {"latitude": "-2.1239", "texts": ["mhy-x-bible-maany-v0.txt"], "code": "mhy", "name": "Ma'anyan", "longitude": "115.09176"}, {"latitude": "-5.73463", "texts": ["ljp-x-bible-lampa-v0.txt"], "code": "ljp", "name": "Lampung", "longitude": "105.03657"}, {"latitude": "2.61516", "texts": ["pbb-x-bible-paez-v0.txt"], "code": "pbb", "name": "P\u00e1ez", "longitude": "-76.31254"}, {"latitude": "55.8307", "texts": ["mhr-x-bible-marim-v0.txt"], "code": "mhr", "name": "Eastern Mari", "longitude": "48.40502"}, {"latitude": "11.25817", "texts": ["xsm-x-bible-kasem-v0.txt"], "code": "xsm", "name": "Kasem", "longitude": "-1.24065"}, {"latitude": "-3.33743", "texts": ["old-x-bible-kimoc-v0.txt"], "code": "old", "name": "Mochi", "longitude": "37.33568"}, {"latitude": "-7.77352", "texts": ["txu-x-bible-kayap-v0.txt"], "code": "txu", "name": "Kayap\u00f3", "longitude": "-51.67367"}, {"latitude": "-11.4628", "texts": ["tum-x-bible-tumbuka-v0.txt"], "code": "tum", "name": "Tumbuka", "longitude": "33.75065"}, {"latitude": "-6.4795", "texts": ["kmg-x-bible-kate-v0.txt"], "code": "kmg", "name": "K\u00e2te", "longitude": "147.75695"}, {"latitude": "21.93031", "texts": ["cnw-x-bible-chinngawn-v0.txt"], "code": "cnw", "name": "Ngawn Chin", "longitude": "93.58348"}, {"latitude": "17.71151", "texts": ["cnt-x-bible-Chtep-v0.txt"], "code": "cnt", "name": "Tepetotutla Chinantec", "longitude": "-96.54039"}, {"latitude": "18.22245", "texts": ["poe-x-bible-papja-v0.txt"], "code": "poe", "name": "San Juan Atzingo Popoloca", "longitude": "-97.37923"}, {"latitude": "-16.00359", "texts": ["gvn-x-bible-kukuya-v0.txt"], "code": "gvn", "name": "Kuku-Yalanji", "longitude": "145.18837"}, {"latitude": "-6.64473", "texts": ["for-x-bible-fore-v0.txt"], "code": "for", "name": "Fore", "longitude": "145.5065"}, {"latitude": "-4.08721", "texts": ["kmo-x-bible-washkukkwoma-v0.txt"], "code": "kmo", "name": "Kwoma", "longitude": "142.66438"}, {"latitude": "1.09898", "texts": ["gvc-x-bible-guana-v0.txt"], "code": "gvc", "name": "Guanano", "longitude": "-69.49946"}, {"latitude": "-6.2249", "texts": ["gvf-x-bible-golin-v0.txt"], "code": "gvf", "name": "Golin", "longitude": "144.8505"}, {"latitude": "-5.25216", "texts": ["kmh-x-bible-minimib-v0.txt"], "code": "kmh", "name": "Kalam", "longitude": "144.58514"}, {"latitude": "-10.89674", "texts": ["ese-x-bible-eseej-v0.txt"], "code": "ese", "name": "Ese Ejja", "longitude": "-66.03656"}, {"latitude": "-3.8503", "texts": ["kms-x-bible-kamasau-v0.txt"], "code": "kms", "name": "Kamasau", "longitude": "143.84222"}, {"latitude": "37.51227", "texts": ["kmr-x-bible-northkurd-v0.txt"], "code": "kmr", "name": "Northern Kurdish", "longitude": "41.39668"}, {"latitude": "17.58251", "texts": ["cnl-x-bible-chlal-v0.txt"], "code": "cnl", "name": "Lalana Chinantec", "longitude": "-96.00645"}, {"latitude": "64.77955", "texts": ["esk-x-bible-inupn-v0.txt"], "code": "esk", "name": "Northwest Alaska Inupiatun", "longitude": "-161.80666"}, {"latitude": "22.4037", "texts": ["cnh-x-bible-chhak-v0.txt"], "code": "cnh", "name": "Haka Chin", "longitude": "93.72557"}, {"latitude": "-11.93109", "texts": ["cni-x-bible-ashaa-v0.txt", "cni-x-bible-ashan-v0.txt"], "code": "cni", "name": "Ash\u00e1ninka", "longitude": "-73.90728"}, {"latitude": "-19.59065", "texts": ["plt-x-bible-malagplatea-v0.txt", "plt-x-bible-malic-v0.txt", "plt-x-bible-malrc-v0.txt"], "code": "plt", "name": "Plateau Malagasy", "longitude": "47.12111"}, {"latitude": "18.74", "texts": ["pls-x-bible-popmt-v0.txt"], "code": "pls", "name": "San Marcos Tlalcoyalco Popoloca", "longitude": "-97.59358"}, {"latitude": "-6.16163", "texts": ["kpf-x-bible-komba-v0.txt"], "code": "kpf", "name": "Komba", "longitude": "147.27997"}, {"latitude": "-16.6183", "texts": ["swk-x-bible-senamala-v0.txt"], "code": "swk", "name": "Malawi Sena", "longitude": "34.99095"}, {"latitude": "-3.67233", "texts": ["sim-x-bible-mende-v0.txt"], "code": "sim", "name": "Mende", "longitude": "142.68288"}, {"latitude": "50.83934", "texts": ["rus-x-bible-russisy-v0.txt"], "code": "rus", "name": "Russian", "longitude": "84.43421"}, {"latitude": "69.37608", "texts": ["kal-x-bible-greenlainu-v0.txt"], "code": "kal", "name": "Greenlandic Inuktitut", "longitude": "-52.86402"}, {"latitude": "-5.96037", "texts": ["xsi-x-bible-sio-v0.txt"], "code": "xsi", "name": "Sio", "longitude": "147.35333"}, {"latitude": "13.88269", "texts": ["acf-x-bible-lucia-v0.txt"], "code": "acf", "name": "Saint Lucian Creole French", "longitude": "-60.97418"}, {"latitude": "3.90757", "texts": ["ace-x-bible-aceh-v0.txt"], "code": "ace", "name": "Aceh", "longitude": "96.60325"}, {"latitude": "8.39478", "texts": ["acd-x-bible-gikyo-v0.txt"], "code": "acd", "name": "Gikyode", "longitude": "0.56975"}, {"latitude": "0.7951", "texts": ["sri-x-bible-siria-v0.txt"], "code": "sri", "name": "Siriano", "longitude": "-70.43739"}, {"latitude": "5.79102", "texts": ["srn-x-bible-srana-v0.txt"], "code": "srn", "name": "Sranan", "longitude": "-56.19406"}, {"latitude": "24.4344", "texts": ["acn-x-bible-ngoch-v0.txt"], "code": "acn", "name": "Achang", "longitude": "97.81802"}, {"latitude": "4.56627", "texts": ["srm-x-bible-saram-v0.txt"], "code": "srm", "name": "Saramaccan", "longitude": "-55.67555"}, {"latitude": "10.81307", "texts": ["krj-x-bible-kinaraya-v0.txt"], "code": "krj", "name": "Kinaray-A", "longitude": "122.2969"}, {"latitude": "15.07303", "texts": ["acr-x-bible-achdc-v0.txt", "acr-x-bible-achirabref-v0.txt", "acr-x-bible-achirabtrad-v0.txt"], "code": "acr", "name": "Rabinal Ach\u00ed", "longitude": "-90.35134"}, {"latitude": "22.31508", "texts": ["bgr-x-bible-bawm-v0.txt"], "code": "bgr", "name": "Bawm Chin", "longitude": "93.10768"}, {"latitude": "8.30785", "texts": ["kri-x-bible-krio-v0.txt"], "code": "kri", "name": "Krio", "longitude": "-13.13667"}, {"latitude": "-2.52188", "texts": ["lcm-x-bible-tungag-v0.txt"], "code": "lcm", "name": "Tungag", "longitude": "150.19803"}, {"latitude": "-3.2503", "texts": ["acu-x-bible-achsh-v0.txt"], "code": "acu", "name": "Achuar-Shiwiar", "longitude": "-77.27207"}, {"latitude": "43.56504", "texts": ["krc-x-bible-balkar-v0.txt"], "code": "krc", "name": "Karachay-Balkar", "longitude": "42.26059"}, {"latitude": "50.771", "texts": ["nds-x-bible-losax-v0.txt"], "code": "nds", "name": "Low Saxon", "longitude": "6.092"}, {"latitude": "-30.46098", "texts": ["zul-x-bible-zulu-v0.txt"], "code": "zul", "name": "Zulu", "longitude": "30.33978"}, {"latitude": "-4.0836", "texts": ["yli-x-bible-yaliang-v0.txt"], "code": "yli", "name": "Angguruk Yali", "longitude": "139.45668"}, {"latitude": "-16.94017", "texts": ["mbl-x-bible-maxakali\u0301-v0.txt"], "code": "mbl", "name": "Maxakal\u00ed", "longitude": "-40.78912"}, {"latitude": "-4.56875", "texts": ["nsn-x-bible-nehan-v0.txt"], "code": "nsn", "name": "Nehan", "longitude": "154.19964"}, {"latitude": "-1.70416", "texts": ["ppk-x-bible-uma-v0.txt"], "code": "ppk", "name": "Uma", "longitude": "119.96795"}, {"latitude": "20.9276", "texts": ["ahk-x-bible-akha-v0.txt"], "code": "ahk", "name": "Akha", "longitude": "100.10188"}, {"latitude": "1.31125", "texts": ["mbf-x-bible-malba-v0.txt"], "code": "mbf", "name": "Baba Malay", "longitude": "103.87905"}, {"latitude": "-6.86321", "texts": ["ppo-x-bible-folop-v0.txt"], "code": "ppo", "name": "Folopa", "longitude": "144.45842"}, {"latitude": "7.6682", "texts": ["mbb-x-bible-westernbukidnon-v0.txt"], "code": "mbb", "name": "Western Bukidnon Manobo", "longitude": "124.82468"}, {"latitude": "-10.16585", "texts": ["soq-x-bible-kanas-v0.txt"], "code": "soq", "name": "Kanasi", "longitude": "149.75093"}, {"latitude": "8.60006", "texts": ["bjv-x-bible-nangn-v0.txt"], "code": "bjv", "name": "Bedjond", "longitude": "17.2691"}, {"latitude": "-6.22068", "texts": ["bjr-x-bible-binum-v0.txt"], "code": "bjr", "name": "Binumarien", "longitude": "146.10232"}, {"latitude": "-4.285326", "texts": ["bjp-x-bible-fanam-v0.txt"], "code": "bjp", "name": "Fanamaket", "longitude": "152.920592"},